city,city_ascii,state,lat,lon,country,iso2,iso3,capital,population,id
Tokyo,Tokyo,Tōkyō,35.6839,139.7744,Japan,JP,JPN,primary,39105000,1392685764
Jakarta,Jakarta,Jakarta,-6.2146,106.8451,Indonesia,ID,IDN,primary,35362000,1360771077
Delhi,Delhi,Delhi,28.6667,77.2167,India,IN,IND,admin,31870000,1356872604
Manila,Manila,Manila,14.6,120.9833,Philippines,PH,PHL,primary,23971000,1608618140
São Paulo,Sao Paulo,São Paulo,-23.5504,-46.6339,Brazil,BR,BRA,admin,22495000,1076532519
Seoul,Seoul,Seoul,37.56,126.99,South Korea,KR,KOR,primary,22394000,1410836482
Mumbai,Mumbai,Mahārāshtra,19.0758,72.8775,India,IN,IND,admin,22186000,1356226629
Shanghai,Shanghai,Shanghai,31.1667,121.4667,China,CN,CHN,admin,22118000,1156073548
Mexico City,Mexico City,Ciudad de México,19.4333,-99.1333,Mexico,MX,MEX,primary,21505000,1484247881
Guangzhou,Guangzhou,Guangdong,23.1288,113.259,China,CN,CHN,admin,21489000,1156237133
Cairo,Cairo,Al Qāhirah,30.0444,31.2358,Egypt,EG,EGY,primary,19787000,1818253931
Beijing,Beijing,Beijing,39.904,116.4075,China,CN,CHN,primary,19437000,1156228865
New York,New York,New York,40.6943,-73.9249,United States,US,USA,,18713220,1840034016
Kolkāta,Kolkata,West Bengal,22.5727,88.3639,India,IN,IND,admin,18698000,1356060520
Moscow,Moscow,Moskva,55.7558,37.6178,Russia,RU,RUS,primary,17693000,1643318494
Bangkok,Bangkok,Krung Thep Maha Nakhon,13.75,100.5167,Thailand,TH,THA,primary,17573000,1764068610
Dhaka,Dhaka,Dhaka,23.7289,90.3944,Bangladesh,BD,BGD,primary,16839000,1050529279
Buenos Aires,Buenos Aires,"Buenos Aires, Ciudad Autónoma de",-34.5997,-58.3819,Argentina,AR,ARG,primary,16216000,1032717330
Ōsaka,Osaka,Ōsaka,34.752,135.4582,Japan,JP,JPN,admin,15490000,1392419823
Lagos,Lagos,Lagos,6.45,3.4,Nigeria,NG,NGA,minor,15487000,1566593751
Istanbul,Istanbul,İstanbul,41.01,28.9603,Turkey,TR,TUR,admin,15311000,1792756324
Karachi,Karachi,Sindh,24.86,67.01,Pakistan,PK,PAK,admin,15292000,1586129469
Kinshasa,Kinshasa,Kinshasa,-4.3317,15.3139,Congo (Kinshasa),CD,COD,primary,15056000,1180000363
Shenzhen,Shenzhen,Guangdong,22.535,114.054,China,CN,CHN,minor,14678000,1156158707
Bangalore,Bangalore,Karnātaka,12.9791,77.5913,India,IN,IND,admin,13999000,1356410365
Ho Chi Minh City,Ho Chi Minh City,Hồ Chí Minh,10.8167,106.6333,Vietnam,VN,VNM,admin,13954000,1704774326
Tehran,Tehran,Tehrān,35.7,51.4167,Iran,IR,IRN,primary,13819000,1364305026
Los Angeles,Los Angeles,California,34.1139,-118.4068,United States,US,USA,,12750807,1840020491
Rio de Janeiro,Rio de Janeiro,Rio de Janeiro,-22.9083,-43.1964,Brazil,BR,BRA,admin,12486000,1076887657
Chengdu,Chengdu,Sichuan,30.66,104.0633,China,CN,CHN,admin,11920000,1156421555
Baoding,Baoding,Hebei,38.8671,115.4845,China,CN,CHN,,11860000,1156256829
Chennai,Chennai,Tamil Nādu,13.0825,80.275,India,IN,IND,admin,11564000,1356374944
Lahore,Lahore,Punjab,31.5497,74.3436,Pakistan,PK,PAK,admin,11148000,1586801463
London,London,"London, City of",51.5072,-0.1275,United Kingdom,GB,GBR,primary,11120000,1826645935
Paris,Paris,Île-de-France,48.8566,2.3522,France,FR,FRA,primary,11027000,1250015082
Tianjin,Tianjin,Tianjin,39.1467,117.2056,China,CN,CHN,admin,10932000,1156174046
Linyi,Linyi,Shandong,35.0606,118.3425,China,CN,CHN,,10820000,1156086320
Shijiazhuang,Shijiazhuang,Hebei,38.0422,114.5086,China,CN,CHN,admin,10784600,1156217541
Zhengzhou,Zhengzhou,Henan,34.7492,113.6605,China,CN,CHN,admin,10136000,1156183137
Nanyang,Nanyang,Henan,32.9987,112.5292,China,CN,CHN,,10013600,1156192287
Hyderābād,Hyderabad,Telangana,17.3617,78.4747,India,IN,IND,admin,9840000,1356871768
Wuhan,Wuhan,Hubei,30.5872,114.2881,China,CN,CHN,admin,9729000,1156117184
Handan,Handan,Hebei,36.6116,114.4894,China,CN,CHN,minor,9549700,1156957080
Nagoya,Nagoya,Aichi,35.1167,136.9333,Japan,JP,JPN,admin,9522000,1392407472
Weifang,Weifang,Shandong,36.7167,119.1,China,CN,CHN,,9373000,1156912965
Lima,Lima,Lima,-12.06,-77.0375,Peru,PE,PER,primary,8992000,1604728603
Zhoukou,Zhoukou,Henan,33.625,114.6418,China,CN,CHN,minor,8953172,1156272098
Luanda,Luanda,Luanda,-8.8383,13.2344,Angola,AO,AGO,primary,8883000,1024949724
Ganzhou,Ganzhou,Jiangxi,25.8292,114.9336,China,CN,CHN,minor,8677600,1156832475
Tongshan,Tongshan,Jiangsu,34.261,117.1859,China,CN,CHN,minor,8669000,1156241678
Kuala Lumpur,Kuala Lumpur,Kuala Lumpur,3.1478,101.6953,Malaysia,MY,MYS,primary,8639000,1458988644
Chicago,Chicago,Illinois,41.8373,-87.6862,United States,US,USA,,8604203,1840000494
Heze,Heze,Shandong,35.2333,115.4333,China,CN,CHN,minor,8287693,1156225008
Chongqing,Chongqing,Chongqing,29.55,106.5069,China,CN,CHN,admin,8261000,1156936556
Hanoi,Hanoi,Hà Nội,21.0245,105.8412,Vietnam,VN,VNM,primary,8246600,1704413791
Fuyang,Fuyang,Anhui,32.8986,115.8045,China,CN,CHN,,8200264,1156248008
Changsha,Changsha,Hunan,28.1987,112.9709,China,CN,CHN,admin,8154700,1156961497
Dongguan,Dongguan,Guangdong,23.0475,113.7493,China,CN,CHN,minor,8142000,1156478242
Jining,Jining,Shandong,35.4,116.5667,China,CN,CHN,,8081905,1156504601
Jinan,Jinan,Shandong,36.6667,116.9833,China,CN,CHN,admin,7967400,1156972469
Pune,Pune,Mahārāshtra,18.5196,73.8553,India,IN,IND,,7948000,1356081074
Foshan,Foshan,Guangdong,23.0292,113.1056,China,CN,CHN,minor,7905700,1156738403
Bogotá,Bogota,Bogotá,4.6126,-74.0705,Colombia,CO,COL,primary,7743955,1170483426
Ahmedabad,Ahmedabad,Gujarāt,23.03,72.58,India,IN,IND,minor,7717000,1356304381
Nanjing,Nanjing,Jiangsu,32.05,118.7667,China,CN,CHN,admin,7729000,1156644065
Changchun,Changchun,Jilin,43.9,125.2,China,CN,CHN,admin,7674439,1156078103
Tangshan,Tangshan,Hebei,39.6292,118.1742,China,CN,CHN,,7577289,1156904299
Cangzhou,Cangzhou,Hebei,38.3037,116.8452,China,CN,CHN,,7544300,1156698069
Dar es Salaam,Dar es Salaam,Dar es Salaam,-6.8,39.2833,Tanzania,TZ,TZA,primary,7461000,1834843853
Hefei,Hefei,Anhui,31.8639,117.2808,China,CN,CHN,admin,7457027,1156332710
Hong Kong,Hong Kong,,22.3069,114.1831,Hong Kong,HK,HKG,primary,7398000,1344982653
Shaoyang,Shaoyang,Hunan,27.2418,111.4725,China,CN,CHN,,7370500,1156310366
Zhanjiang,Zhanjiang,Guangdong,21.1967,110.4031,China,CN,CHN,minor,7332000,1156502170
Shangqiu,Shangqiu,Henan,34.4259,115.6467,China,CN,CHN,,7325300,1156805441
Nantong,Nantong,Jiangsu,31.9829,120.8873,China,CN,CHN,minor,7283622,1156045365
Yancheng,Yancheng,Jiangsu,33.3936,120.1339,China,CN,CHN,minor,7260240,1156995410
Nanning,Nanning,Guangxi,22.8192,108.315,China,CN,CHN,admin,7254100,1156605439
Hengyang,Hengyang,Hunan,26.8968,112.5857,China,CN,CHN,,7243400,1156696884
Zhumadian,Zhumadian,Henan,32.9773,114.0253,China,CN,CHN,,7231234,1156184822
Shenyang,Shenyang,Liaoning,41.8039,123.4258,China,CN,CHN,admin,7208000,1156309382
Xingtai,Xingtai,Hebei,37.0659,114.4753,China,CN,CHN,,7104103,1156294952
Xi’an,Xi'an,Shaanxi,34.2667,108.9,China,CN,CHN,admin,7090000,1156244079
Santiago,Santiago,Región Metropolitana,-33.45,-70.6667,Chile,CL,CHL,primary,7026000,1152554349
Yantai,Yantai,Shandong,37.3997,121.2664,China,CN,CHN,,6968202,1156932948
Riyadh,Riyadh,Ar Riyāḑ,24.65,46.71,Saudi Arabia,SA,SAU,primary,6889000,1682999334
Luoyang,Luoyang,Henan,34.6587,112.4245,China,CN,CHN,,6888500,1156069315
Kunming,Kunming,Yunnan,25.0433,102.7061,China,CN,CHN,admin,6850000,1156477539
Shangrao,Shangrao,Jiangxi,28.4419,117.9633,China,CN,CHN,minor,6810700,1156405492
Hangzhou,Hangzhou,Zhejiang,30.25,120.1675,China,CN,CHN,admin,6713000,1156275243
Bijie,Bijie,Guizhou,27.3019,105.2863,China,CN,CHN,,6686100,1156018927
Quanzhou,Quanzhou,Fujian,24.9139,118.5858,China,CN,CHN,minor,6480000,1156829655
Miami,Miami,Florida,25.7839,-80.2102,United States,US,USA,,6445545,1840015149
Wuxi,Wuxi,Jiangsu,31.5667,120.2833,China,CN,CHN,minor,6372624,1156019650
Huanggang,Huanggang,Hubei,30.45,114.875,China,CN,CHN,minor,6333000,1156200037
Maoming,Maoming,Guangdong,21.6618,110.9178,China,CN,CHN,minor,6313200,1156568722
Nanchong,Nanchong,Sichuan,30.7991,106.0784,China,CN,CHN,minor,6278614,1156762337
Zunyi,Zunyi,Guizhou,27.705,106.9336,China,CN,CHN,,6270700,1156539782
Qujing,Qujing,Yunnan,25.5102,103.8029,China,CN,CHN,,6155400,1156747998
Baghdad,Baghdad,Baghdād,33.35,44.4167,Iraq,IQ,IRQ,primary,6107000,1368596238
Xinyang,Xinyang,Henan,32.1264,114.0672,China,CN,CHN,,6109106,1156273453
Jieyang,Jieyang,Guangdong,23.5533,116.3649,China,CN,CHN,minor,6089400,1156260378
Khartoum,Khartoum,Khartoum,15.6031,32.5265,Sudan,SD,SDN,primary,6017000,1729268475
Madrid,Madrid,Madrid,40.4167,-3.7167,Spain,ES,ESP,primary,6006000,1724616994
Allahābād,Allahabad,Uttar Pradesh,25.45,81.85,India,IN,IND,,5954391,1356718332
Yulin,Yulin,Guangxi,22.6293,110.1507,China,CN,CHN,minor,5849700,1156901312
Changde,Changde,Hunan,29.0397,111.6839,China,CN,CHN,minor,5827200,1156449091
Liaocheng,Liaocheng,Shandong,36.45,115.9833,China,CN,CHN,minor,5789863,1156006600
Qingdao,Qingdao,Shandong,36.1167,120.4,China,CN,CHN,minor,5775000,1156112588
Dallas,Dallas,Texas,32.7936,-96.7662,United States,US,USA,,5743938,1840019440
Nangandao,Nangandao,Henan,35.2992,113.8851,China,CN,CHN,minor,5708191,1156127660
Xiangyang,Xiangyang,Hubei,32.0654,112.1531,China,CN,CHN,minor,5680000,1156107325
Philadelphia,Philadelphia,Pennsylvania,40.0077,-75.1339,United States,US,USA,,5649300,1840000673
Giza,Giza,Al Jīzah,29.987,31.2118,Egypt,EG,EGY,admin,5598402,1818925479
Lu’an,Lu'an,Anhui,31.7542,116.5078,China,CN,CHN,minor,5611701,1156499624
Zhaotong,Zhaotong,Yunnan,27.3328,103.7144,China,CN,CHN,,5591000,1156924687
Yichun,Yichun,Jiangxi,27.8041,114.383,China,CN,CHN,minor,5573200,1156229590
Dezhou,Dezhou,Shandong,37.4513,116.3105,China,CN,CHN,minor,5568235,1156524080
Nairobi,Nairobi,Nairobi City,-1.2864,36.8172,Kenya,KE,KEN,primary,5545000,1404000661
Nanchang,Nanchang,Jiangxi,28.6842,115.8872,China,CN,CHN,admin,5545500,1156198892
Tai’an,Tai'an,Shandong,36.2001,117.0809,China,CN,CHN,,5494207,1156095188
Dazhou,Dazhou,Sichuan,31.2152,107.4947,China,CN,CHN,minor,5468097,1156834076
Houston,Houston,Texas,29.7863,-95.3889,United States,US,USA,,5464251,1840020925
Guadalajara,Guadalajara,Jalisco,20.6767,-103.3475,Mexico,MX,MEX,admin,5437000,1484950208
Yongzhou,Yongzhou,Hunan,26.4515,111.5953,China,CN,CHN,,5452100,1156694479
Atlanta,Atlanta,Georgia,33.7627,-84.4224,United States,US,USA,admin,5449398,1840013660
Rangoon,Rangoon,Yangon,16.795,96.16,Myanmar,MM,MMR,primary,5430000,1104616656
Toronto,Toronto,Ontario,43.7417,-79.3733,Canada,CA,CAN,admin,5429524,1124279679
Suihua,Suihua,Heilongjiang,46.6384,126.9808,China,CN,CHN,minor,5418153,1156235493
Saint Petersburg,Saint Petersburg,Sankt-Peterburg,59.95,30.3167,Russia,RU,RUS,admin,5384342,1643616350
Washington,Washington,District of Columbia,38.9047,-77.0163,United States,US,USA,primary,5379184,1840006060
Qiqihar,Qiqihar,Heilongjiang,47.3398,123.9512,China,CN,CHN,minor,5367003,1156775905
Suzhou,Suzhou,Anhui,33.6333,116.9683,China,CN,CHN,,5352924,1156871297
Shantou,Shantou,Guangdong,23.3735,116.6941,China,CN,CHN,minor,5319028,1156457499
Weinan,Weinan,Shaanxi,34.4996,109.4684,China,CN,CHN,minor,5286077,1156903687
Changzhou,Changzhou,Jiangsu,31.8122,119.9692,China,CN,CHN,minor,5278121,1156185511
Singapore,Singapore,Central Singapore,1.3,103.8,Singapore,SG,SGP,primary,5271000,1702341327
Fuzhou,Fuzhou,Fujian,26.0769,119.2917,China,CN,CHN,admin,5245000,1156188037
Pudong,Pudong,Shanghai,31.2231,121.5397,China,CN,CHN,minor,5187200,1156644508
Belo Horizonte,Belo Horizonte,Minas Gerais,-19.9281,-43.9419,Brazil,BR,BRA,admin,5159000,1076967355
Zhangzhou,Zhangzhou,Fujian,24.5093,117.6612,China,CN,CHN,minor,5140000,1156241637
Yuncheng,Yuncheng,Shanxi,35.0304,110.998,China,CN,CHN,,5134779,1156705644
Suzhou,Suzhou,Jiangsu,31.304,120.6164,China,CN,CHN,minor,5103000,1156029196
Xianyang,Xianyang,Shaanxi,34.35,108.7167,China,CN,CHN,minor,5096001,1156120117
Guilin,Guilin,Guangxi,25.2667,110.2833,China,CN,CHN,minor,5085500,1156235364
Taizhou,Taizhou,Jiangsu,32.4831,119.9,China,CN,CHN,minor,5031000,1156119229
Abidjan,Abidjan,Abidjan,5.3364,-4.0267,Côte d'Ivoire,CI,CIV,primary,4980000,1384207980
Huaihua,Huaihua,Hunan,27.5494,109.9592,China,CN,CHN,,4979600,1156353465
Ji’an,Ji'an,Jiangxi,27.1172,114.9793,China,CN,CHN,minor,4956600,1156278215
Xiaoganzhan,Xiaoganzhan,Hubei,30.9273,113.911,China,CN,CHN,,4921000,1156002290
Pingdingshan,Pingdingshan,Henan,33.735,113.2999,China,CN,CHN,,4904701,1156735124
Jiujiang,Jiujiang,Jiangxi,29.7048,116.0021,China,CN,CHN,minor,4896800,1156206041
Sūrat,Surat,Gujarāt,21.17,72.83,India,IN,IND,,4875000,1356758738
Guiyang,Guiyang,Guizhou,26.5794,106.7078,China,CN,CHN,admin,4881900,1156932620
Alexandria,Alexandria,Al Iskandarīyah,31.2,29.9167,Egypt,EG,EGY,admin,4870000,1818695837
Bozhou,Bozhou,Anhui,33.8626,115.7742,China,CN,CHN,,4850657,1156356860
Sydney,Sydney,New South Wales,-33.865,151.2094,Australia,AU,AUS,admin,4840600,1036074917
Huizhou,Huizhou,Guangdong,23.1115,114.4152,China,CN,CHN,minor,4830000,1156203268
Huai’an,Huai'an,Jiangsu,33.5,119.1331,China,CN,CHN,,4799889,1156634228
Chenzhou,Chenzhou,Hunan,25.7989,113.0267,China,CN,CHN,minor,4744500,1156291915
Barcelona,Barcelona,Catalonia,41.3825,2.1769,Spain,ES,ESP,admin,4735000,1724594040
Anqing,Anqing,Anhui,30.5,117.0333,China,CN,CHN,minor,4723000,1156238875
Suqian,Suqian,Jiangsu,33.9331,118.2831,China,CN,CHN,,4719178,1156212349
Boston,Boston,Massachusetts,42.3188,-71.0846,United States,US,USA,admin,4688346,1840000455
Jiangmen,Jiangmen,Guangdong,22.5833,113.0833,China,CN,CHN,minor,4630300,1156105613
Mianyang,Mianyang,Sichuan,31.4669,104.7385,China,CN,CHN,minor,4613862,1156417758
Harbin,Harbin,Heilongjiang,45.75,126.6333,China,CN,CHN,admin,4583000,1156241528
Huanglongsi,Huanglongsi,Henan,34.7936,114.3403,China,CN,CHN,,4564900,1156198356
Melbourne,Melbourne,Victoria,-37.8136,144.9631,Australia,AU,AUS,admin,4529500,1036533631
Zibo,Zibo,Shandong,36.7831,118.0497,China,CN,CHN,,4530597,1156381094
Dalian,Dalian,Liaoning,38.9,121.6,China,CN,CHN,,4480000,1156175472
Hengshui,Hengshui,Hebei,37.7348,115.686,China,CN,CHN,,4472000,1156803028
Yibin,Yibin,Sichuan,28.7596,104.64,China,CN,CHN,minor,4471896,1156107603
Yangzhou,Yangzhou,Jiangsu,32.3912,119.4363,China,CN,CHN,,4459760,1156818601
Timbío,Timbio,Cauca,2.3528,-76.6819,Colombia,CO,COL,minor,4444444,1170815311
Johannesburg,Johannesburg,Gauteng,-26.2044,28.0416,South Africa,ZA,ZAF,admin,4434827,1710550792
Yiyang,Yiyang,Hunan,28.5833,112.3333,China,CN,CHN,,4413800,1156218615
Guigang,Guigang,Guangxi,23.0961,109.6092,China,CN,CHN,minor,4409200,1156895251
Xinpu,Xinpu,Jiangsu,34.5906,119.1801,China,CN,CHN,minor,4393482,1156035381
Meizhou,Meizhou,Guangdong,24.2998,116.1191,China,CN,CHN,minor,4378800,1156361028
Casablanca,Casablanca,Casablanca-Settat,33.5992,-7.62,Morocco,MA,MAR,admin,4370000,1504175315
Langfang,Langfang,Hebei,39.5196,116.7006,China,CN,CHN,,4358839,1156109017
Zhangjiakou,Zhangjiakou,Hebei,40.8108,114.8811,China,CN,CHN,,4345485,1156800221
Chifeng,Chifeng,Inner Mongolia,42.2663,118.9223,China,CN,CHN,minor,4341245,1156277458
Linfen,Linfen,Shanxi,36.0812,111.5087,China,CN,CHN,,4316610,1156416074
Jiangguanchi,Jiangguanchi,Henan,34.0244,113.8201,China,CN,CHN,minor,4307488,1156235735
Kabul,Kabul,Kābul,34.5328,69.1658,Afghanistan,AF,AFG,primary,4273156,1004993580
Phoenix,Phoenix,Arizona,33.5722,-112.0891,United States,US,USA,admin,4219697,1840020568
Luzhou,Luzhou,Sichuan,28.8918,105.4409,China,CN,CHN,minor,4218427,1156582079
Taiyuan,Taiyuan,Shanxi,37.8733,112.5425,China,CN,CHN,admin,4201592,1156632014
Zhaoqing,Zhaoqing,Guangdong,23.05,112.4667,China,CN,CHN,minor,4151700,1156170144
Xiaoxita,Xiaoxita,Hubei,30.7083,111.2803,China,CN,CHN,minor,4137900,1156764447
Xiamen,Xiamen,Fujian,24.4797,118.0819,China,CN,CHN,minor,4110000,1156212809
Fuzhou,Fuzhou,Jiangxi,27.9814,116.3577,China,CN,CHN,,4047200,1156915325
Liuzhou,Liuzhou,Guangxi,24.3264,109.4281,China,CN,CHN,minor,4041700,1156360785
Zhuzhou,Zhuzhou,Hunan,27.8407,113.1469,China,CN,CHN,minor,4020800,1156041962
Amman,Amman,Al ‘Āşimah,31.95,35.9333,Jordan,JO,JOR,primary,4007526,1400522593
Jeddah,Jeddah,Makkah al Mukarramah,21.5428,39.1728,Saudi Arabia,SA,SAU,,3976000,1682926944
Chuzhou,Chuzhou,Anhui,32.3062,118.3115,China,CN,CHN,,3937868,1156036420
Loudi,Loudi,Hunan,27.7378,111.9974,China,CN,CHN,,3931800,1156010654
Deyang,Deyang,Sichuan,31.1289,104.395,China,CN,CHN,minor,3877000,1156127147
Qingyuan,Qingyuan,Guangdong,23.6842,113.0507,China,CN,CHN,minor,3874000,1156135890
Kano,Kano,Kano,12,8.5167,Nigeria,NG,NGA,admin,3848885,1566422868
Wuhu,Wuhu,Anhui,31.334,118.3622,China,CN,CHN,minor,3842100,1156315512
Seattle,Seattle,Washington,47.6211,-122.3244,United States,US,USA,,3789215,1840021117
Yokohama,Yokohama,Kanagawa,35.4333,139.6333,Japan,JP,JPN,admin,3757630,1392118339
Binzhou,Binzhou,Shandong,37.3806,118.0125,China,CN,CHN,,3748474,1156564962
Baojishi,Baojishi,Shaanxi,34.3609,107.1751,China,CN,CHN,,3738700,1156101096
Zaozhuang,Zaozhuang,Shandong,34.8667,117.55,China,CN,CHN,,3729140,1156796454
Neijiang,Neijiang,Sichuan,29.5872,105.0635,China,CN,CHN,minor,3702847,1156516335
Baicheng,Baicheng,Guangxi,23.901,106.6194,China,CN,CHN,minor,3669400,1156981113
Berlin,Berlin,Berlin,52.5167,13.3833,Germany,DE,DEU,primary,3664088,1276451290
Anshan,Anshan,Liaoning,41.1066,122.9895,China,CN,CHN,,3645884,1156901825
Lanzhou,Lanzhou,Gansu,36.0617,103.8318,China,CN,CHN,admin,3616163,1156280566
Puyang,Puyang,Henan,35.7639,115.03,China,CN,CHN,minor,3598740,1156431924
San Francisco,San Francisco,California,37.7562,-122.443,United States,US,USA,,3592294,1840021543
Jiaozuo,Jiaozuo,Henan,35.229,113.2304,China,CN,CHN,,3590700,1156157854
Hechi,Hechi,Guangxi,24.6928,108.085,China,CN,CHN,minor,3545700,1156167204
Montréal,Montreal,Quebec,45.5089,-73.5617,Canada,CA,CAN,,3519595,1124586170
Detroit,Detroit,Michigan,42.3834,-83.1024,United States,US,USA,,3506126,1840003971
Chengde,Chengde,Hebei,40.9739,117.9322,China,CN,CHN,,3473201,1156197800
Busan,Busan,Busan,35.1,129.0403,South Korea,KR,KOR,admin,3453198,1410601465
Algiers,Algiers,Alger,36.7764,3.0586,Algeria,DZ,DZA,primary,3415811,1012973369
Hanzhong,Hanzhong,Shaanxi,33.0794,107.026,China,CN,CHN,,3416196,1156382678
Shiyan,Shiyan,Hubei,32.6351,110.7755,China,CN,CHN,minor,3398000,1156383921
Lucknow,Lucknow,Uttar Pradesh,26.847,80.947,India,IN,IND,admin,3382000,1356891790
Siping,Siping,Jilin,43.1715,124.3644,China,CN,CHN,,3385156,1156063295
Yulinshi,Yulinshi,Shaanxi,38.2655,109.7388,China,CN,CHN,,3351436,1156280672
Changzhi,Changzhi,Shanxi,36.1953,113.097,China,CN,CHN,minor,3334565,1156057944
Qinzhou,Qinzhou,Guangxi,21.95,108.6167,China,CN,CHN,minor,3304400,1156106602
Bazhou,Bazhou,Sichuan,31.8576,106.7559,China,CN,CHN,minor,3283148,1156271365
Qincheng,Qincheng,Gansu,34.5809,105.7311,China,CN,CHN,minor,3262549,1156104017
Zhongshan,Zhongshan,Guangdong,22.5333,113.35,China,CN,CHN,minor,3260000,1156579621
Suining,Suining,Sichuan,30.5098,105.5737,China,CN,CHN,minor,3252619,1156655650
Leshan,Leshan,Sichuan,29.5854,103.7575,China,CN,CHN,,3235759,1156203130
San Diego,San Diego,California,32.8312,-117.1225,United States,US,USA,,3220118,1840021990
Faisalabad,Faisalabad,Punjab,31.418,73.079,Pakistan,PK,PAK,minor,3203846,1586323916
Guang’an,Guang'an,Sichuan,30.4673,106.6336,China,CN,CHN,minor,3205476,1156377302
Tongren,Tongren,Guizhou,27.7233,109.1885,China,CN,CHN,,3168800,1156803442
Bengbu,Bengbu,Anhui,32.9354,117.3531,China,CN,CHN,,3164467,1156440668
Santa Cruz,Santa Cruz,Santa Cruz,-17.7892,-63.1975,Bolivia,BO,BOL,admin,3151676,1068129363
Qinhuangdao,Qinhuangdao,Hebei,39.9398,119.5881,China,CN,CHN,,3146300,1156091093
Tongliao,Tongliao,Inner Mongolia,43.6172,122.264,China,CN,CHN,minor,3139153,1156358686
Jinzhou,Jinzhou,Liaoning,41.1144,121.1292,China,CN,CHN,,3126463,1156157151
Zhenjiang,Zhenjiang,Jiangsu,32.2109,119.4551,China,CN,CHN,minor,3113384,1156934125
Ürümqi,Urumqi,Xinjiang,43.8225,87.6125,China,CN,CHN,admin,3112559,1156051276
Heyuan,Heyuan,Guangdong,23.7503,114.6923,China,CN,CHN,minor,3093900,1156665165
Jaipur,Jaipur,Rājasthān,26.9167,75.8667,India,IN,IND,admin,3073350,1356293537
Xinzhou,Xinzhou,Shanxi,38.4178,112.7233,China,CN,CHN,minor,3067501,1156617534
Wuzhou,Wuzhou,Guangxi,23.4833,111.3167,China,CN,CHN,minor,3061100,1156620133
Addis Ababa,Addis Ababa,Ādīs Ābeba,9.0272,38.7369,Ethiopia,ET,ETH,primary,3041002,1231824991
Chaoyang,Chaoyang,Liaoning,41.5757,120.4486,China,CN,CHN,,3044641,1156706927
Brasília,Brasilia,Distrito Federal,-15.7939,-47.8828,Brazil,BR,BRA,primary,3015268,1076144436
Mashhad,Mashhad,Khorāsān-e Raẕavī,36.3069,59.6042,Iran,IR,IRN,admin,3001184,1364123206
Shaoguan,Shaoguan,Guangdong,24.8011,113.5927,China,CN,CHN,minor,2997600,1156617066
Kuwait City,Kuwait City,Al ‘Āşimah,29.375,47.98,Kuwait,KW,KWT,primary,2989000,1414102075
Shanwei,Shanwei,Guangdong,22.7664,115.3331,China,CN,CHN,minor,2993600,1156939010
Quezon City,Quezon City,Quezon,14.6333,121.0333,Philippines,PH,PHL,admin,2960048,1608974097
Minneapolis,Minneapolis,Minnesota,44.9635,-93.2678,United States,US,USA,,2977172,1840007830
Kyiv,Kyiv,"Kyyiv, Misto",50.45,30.5236,Ukraine,UA,UKR,primary,2963199,1804382913
Sanaa,Sanaa,Amānat al ‘Āşimah,15.35,44.2,Yemen,YE,YEM,primary,2957000,1887750814
Meishan,Meishan,Sichuan,30.0575,103.8381,China,CN,CHN,,2950545,1156185501
Guatemala City,Guatemala City,Guatemala,14.6099,-90.5252,Guatemala,GT,GTM,primary,2934841,1320197916
Incheon,Incheon,Incheon,37.4639,126.6486,South Korea,KR,KOR,admin,2913024,1410160313
Ningde,Ningde,Fujian,26.6617,119.5228,China,CN,CHN,minor,2910000,1156909802
Tampa,Tampa,Florida,27.9942,-82.4451,United States,US,USA,,2908063,1840015982
Daqing,Daqing,Heilongjiang,46.5979,125.008,China,CN,CHN,,2904532,1156403962
Putian,Putian,Fujian,25.4394,119.0103,China,CN,CHN,minor,2900000,1156811601
Bandung,Bandung,Jawa Barat,-6.95,107.5667,Indonesia,ID,IDN,admin,2875673,1360313023
Surabaya,Surabaya,Jawa Timur,-7.2458,112.7378,Indonesia,ID,IDN,admin,2885555,1360484663
Salvador,Salvador,Bahia,-12.9708,-38.5108,Brazil,BR,BRA,admin,2886698,1076923789
Denver,Denver,Colorado,39.7621,-104.8759,United States,US,USA,admin,2876625,1840018789
Rome,Rome,Lazio,41.8931,12.4828,Italy,IT,ITA,primary,2872800,1380382862
La Paz,La Paz,La Paz,-16.4942,-68.1475,Bolivia,BO,BOL,primary,2867504,1068000064
Hohhot,Hohhot,Inner Mongolia,40.8151,111.6629,China,CN,CHN,admin,2866615,1156210167
Xiangtan,Xiangtan,Hunan,27.8431,112.9228,China,CN,CHN,,2864800,1156195684
Pyongyang,Pyongyang,P’yŏngyang,39.03,125.73,North Korea,KP,PRK,primary,2863000,1408738594
Taichung,Taichung,Taichung,24.15,120.6667,Taiwan,TW,TWN,admin,2803894,1158689622
Weihai,Weihai,Shandong,37.5,122.1,China,CN,CHN,minor,2804771,1156473300
Rizhao,Rizhao,Shandong,35.4164,119.4331,China,CN,CHN,minor,2801013,1156032841
Mudanjiang,Mudanjiang,Heilongjiang,44.5861,129.5997,China,CN,CHN,minor,2798723,1156249698
Kaohsiung,Kaohsiung,Kaohsiung,22.6167,120.3,Taiwan,TW,TWN,admin,2773533,1158331334
Guayaquil,Guayaquil,Guayas,-2.19,-79.8875,Ecuador,EC,ECU,admin,2723665,1218802178
Tieling,Tieling,Liaoning,42.2841,123.8365,China,CN,CHN,,2717732,1156089994
Cawnpore,Cawnpore,Uttar Pradesh,26.4725,80.3311,India,IN,IND,,2701324,1356575238
Dingxi,Dingxi,Gansu,35.5806,104.6263,China,CN,CHN,minor,2698624,1156518274
Taipei,Taipei,Taipei,25.0478,121.5319,Taiwan,TW,TWN,,2684567,1158881289
Nanping,Nanping,Fujian,26.6448,118.1728,China,CN,CHN,minor,2690000,1156927445
Zigong,Zigong,Sichuan,29.3498,104.7645,China,CN,CHN,,2678899,1156023354
Chaozhou,Chaozhou,Guangdong,23.67,116.63,China,CN,CHN,minor,2656600,1156549118
Baotou,Baotou,Inner Mongolia,40.6562,109.8345,China,CN,CHN,,2650364,1156032751
Gulou,Gulou,Fujian,26.0819,119.2981,China,CN,CHN,minor,2606000,1156680279
Longyan,Longyan,Fujian,25.0881,117.0244,China,CN,CHN,minor,2640000,1156012979
Ankang,Ankang,Shaanxi,32.6877,109.0235,China,CN,CHN,,2629906,1156255711
Baoshan,Baoshan,Yunnan,25.1211,99.169,China,CN,CHN,,2627000,1156546994
Huludao,Huludao,Liaoning,40.7094,120.8378,China,CN,CHN,minor,2623541,1156580218
Antananarivo,Antananarivo,Antananarivo,-18.9386,47.5214,Madagascar,MG,MDG,primary,2610000,1450978461
Yanjiang,Yanjiang,Sichuan,30.1256,104.6397,China,CN,CHN,minor,2593843,1156217114
Chattogram,Chattogram,Chittagong,22.335,91.8325,Bangladesh,BD,BGD,admin,2581643,1050830722
Santo Domingo,Santo Domingo,Ozama,18.4764,-69.8933,Dominican Republic,DO,DOM,primary,2581827,1214636202
Sanming,Sanming,Fujian,26.2658,117.6302,China,CN,CHN,minor,2580000,1156294429
Longba,Longba,Gansu,33.535,105.349,China,CN,CHN,,2567718,1156633259
Brooklyn,Brooklyn,New York,40.6501,-73.9496,United States,US,USA,,2559903,1840034030
Yangjiang,Yangjiang,Guangdong,21.8556,111.9627,China,CN,CHN,minor,2555600,1156123172
Jiamusi,Jiamusi,Heilongjiang,46.8081,130.3653,China,CN,CHN,minor,2552097,1156350864
Ibadan,Ibadan,Oyo,7.3964,3.9167,Nigeria,NG,NGA,admin,2550593,1566366407
Luohe,Luohe,Henan,33.583,114.0109,China,CN,CHN,minor,2544266,1156330876
Lincang,Lincang,Yunnan,23.8864,100.0871,China,CN,CHN,,2536000,1156044130
Medellín,Medellin,Antioquia,6.2447,-75.5748,Colombia,CO,COL,admin,2529403,1170680389
Xuanzhou,Xuanzhou,Anhui,30.9475,118.7518,China,CN,CHN,,2532938,1156424311
Yunfu,Yunfu,Guangdong,22.9242,112.0353,China,CN,CHN,minor,2526900,1156057251
Dubai,Dubai,Dubayy,25.2697,55.3094,United Arab Emirates,AE,ARE,admin,2502715,1784736618
Mirzāpur,Mirzapur,Uttar Pradesh,25.15,82.58,India,IN,IND,,2496970,1356427908
Tashkent,Tashkent,Toshkent,41.3,69.2667,Uzbekistan,UZ,UZB,primary,2497900,1860331871
Guangyuan,Guangyuan,Sichuan,32.4353,105.8398,China,CN,CHN,,2484122,1156084562
Cali,Cali,Valle del Cauca,3.44,-76.5197,Colombia,CO,COL,admin,2471474,1170417589
Huangshi,Huangshi,Hubei,30.2018,115.0326,China,CN,CHN,minor,2471700,1156234290
Ouagadougou,Ouagadougou,Centre,12.3686,-1.5275,Burkina Faso,BF,BFA,primary,2453496,1854029208
Daegu,Daegu,Daegu,35.8667,128.6,South Korea,KR,KOR,admin,2461002,1410095252
Fortaleza,Fortaleza,Ceará,-3.7275,-38.5275,Brazil,BR,BRA,admin,2452185,1076567885
Yaoundé,Yaounde,Centre,3.8578,11.5181,Cameroon,CM,CMR,primary,2440462,1120298240
Douala,Douala,Littoral,4.05,9.7,Cameroon,CM,CMR,admin,2446945,1120494607
Jilin,Jilin,Jilin,43.8519,126.5481,China,CN,CHN,,2396000,1156646448
Dandong,Dandong,Liaoning,40.1167,124.3833,China,CN,CHN,,2444697,1156178316
Lianshan,Lianshan,Liaoning,40.7523,120.828,China,CN,CHN,minor,2426000,1156046704
Yingkou,Yingkou,Liaoning,40.6653,122.2297,China,CN,CHN,minor,2428534,1156257074
Nāgpur,Nagpur,Mahārāshtra,21.1539,79.0831,India,IN,IND,,2405665,1356365743
Omdurman,Omdurman,Khartoum,15.6167,32.48,Sudan,SD,SDN,,2395159,1729912179
Bekasi,Bekasi,Jawa Barat,-6.2333,107,Indonesia,ID,IDN,,2381053,1360006015
Ghāziābād,Ghaziabad,Uttar Pradesh,28.6667,77.4167,India,IN,IND,,2375820,1356691871
Yuxi,Yuxi,Yunnan,24.3495,102.5432,China,CN,CHN,minor,2386000,1156682309
Brisbane,Brisbane,Queensland,-27.4678,153.0281,Australia,AU,AUS,admin,2360241,1036192929
Anshun,Anshun,Guizhou,26.2456,105.934,China,CN,CHN,,2353100,1156415948
Depok,Depok,Jawa Barat,-6.394,106.8225,Indonesia,ID,IDN,,2330333,1360962899
Shangzhou,Shangzhou,Shaanxi,33.868,109.9244,China,CN,CHN,,2341742,1156091241
Huainan,Huainan,Anhui,32.4831,117.0164,China,CN,CHN,,2333896,1156877299
Kuaidamao,Kuaidamao,Jilin,41.7302,125.9471,China,CN,CHN,minor,2324439,1156106507
Accra,Accra,Greater Accra,5.6037,-0.187,Ghana,GH,GHA,primary,2291352,1288299415
Fukuoka,Fukuoka,Fukuoka,33.6,130.4167,Japan,JP,JPN,admin,2280000,1392576294
Jincheng,Jincheng,Shanxi,35.4906,112.8483,China,CN,CHN,minor,2279146,1156163376
Vancouver,Vancouver,British Columbia,49.25,-123.1,Canada,CA,CAN,,2264823,1124825478
Tangerang,Tangerang,Jawa Barat,-6.1783,106.6319,Indonesia,ID,IDN,,2237006,1360002844
Sanmenxia,Sanmenxia,Henan,34.7736,111.195,China,CN,CHN,,2234018,1156529682
Laibin,Laibin,Guangxi,23.7333,109.2333,China,CN,CHN,minor,2233900,1156925734
Queens,Queens,New York,40.7498,-73.7976,United States,US,USA,,2230722,1840034002
Qinbaling,Qinbaling,Gansu,35.7278,107.64,China,CN,CHN,,2211191,1156032582
Xining,Xining,Qinghai,36.6239,101.7787,China,CN,CHN,admin,2208708,1156081448
Ma’anshan,Ma'anshan,Anhui,31.6858,118.5101,China,CN,CHN,minor,2202899,1156847452
Yan’an,Yan'an,Shaanxi,36.5952,109.4863,China,CN,CHN,,2187009,1156546342
Baku,Baku,Bakı,40.3667,49.8352,Azerbaijan,AZ,AZE,primary,2181800,1031946365
Gaoping,Gaoping,Sichuan,30.7824,106.1281,China,CN,CHN,minor,2174000,1156522457
Harare,Harare,Harare,-17.8292,31.0522,Zimbabwe,ZW,ZWE,primary,2150000,1716196799
Havana,Havana,La Habana,23.1367,-82.3589,Cuba,CU,CUB,primary,2141652,1192752771
Phnom Penh,Phnom Penh,Phnom Penh,11.5696,104.921,Cambodia,KH,KHM,primary,2129371,1116260534
Ningbo,Ningbo,Zhejiang,29.875,121.5492,China,CN,CHN,minor,2125500,1156170787
Mogadishu,Mogadishu,Banaadir,2.0408,45.3425,Somalia,SO,SOM,primary,2120000,1706893395
Puning,Puning,Guangdong,23.2993,116.1586,China,CN,CHN,,2118200,1156756494
Medan,Medan,Sumatera Utara,3.6667,98.6667,Indonesia,ID,IDN,admin,2109330,1360543171
Huaibei,Huaibei,Anhui,33.9562,116.789,China,CN,CHN,,2114276,1156142626
Qingyang,Qingyang,Fujian,24.8141,118.5792,China,CN,CHN,minor,2111000,1156273372
Riverside,Riverside,California,33.9381,-117.3948,United States,US,USA,,2107852,1840020551
Baltimore,Baltimore,Maryland,39.3051,-76.6144,United States,US,USA,,2106068,1840001592
Haiphong,Haiphong,Hải Phòng,20.8,106.6667,Vietnam,VN,VNM,admin,2103500,1704000623
Las Vegas,Las Vegas,Nevada,36.2333,-115.2654,United States,US,USA,,2104198,1840020364
Chongzuo,Chongzuo,Guangxi,22.4167,107.3667,China,CN,CHN,minor,2099400,1156438670
Rawalpindi,Rawalpindi,Punjab,33.6007,73.0679,Pakistan,PK,PAK,minor,2098231,1586344001
Kumasi,Kumasi,Ashanti,6.6833,-1.6167,Ghana,GH,GHA,admin,2069350,1288181103
Portland,Portland,Oregon,45.5372,-122.65,United States,US,USA,,2074775,1840019941
Vadodara,Vadodara,Gujarāt,22.3,73.2,India,IN,IND,,2065771,1356705249
Hezhou,Hezhou,Guangxi,24.4164,111.5478,China,CN,CHN,minor,2072600,1156459799
Pingliang,Pingliang,Gansu,35.5412,106.6819,China,CN,CHN,minor,2068033,1156216904
San Antonio,San Antonio,Texas,29.4658,-98.5253,United States,US,USA,,2049293,1840022220
Perth,Perth,Western Australia,-31.9522,115.8589,Australia,AU,AUS,admin,2039200,1036178956
Vishākhapatnam,Vishakhapatnam,Andhra Pradesh,17.7333,83.3167,India,IN,IND,,2035922,1356692563
Shengli,Shengli,Shandong,37.45,118.4667,China,CN,CHN,minor,2035338,1156672254
Gujranwala,Gujranwala,Punjab,32.15,74.1833,Pakistan,PK,PAK,minor,2027001,1586400472
Baicheng,Baicheng,Jilin,45.6148,122.832,China,CN,CHN,minor,2032356,1156435764
Fushun,Fushun,Liaoning,41.8708,123.8917,China,CN,CHN,,2024000,1156857743
St. Louis,St. Louis,Missouri,38.6358,-90.2451,United States,US,USA,,2024074,1840001651
Bamako,Bamako,Bamako,12.6458,-7.9922,Mali,ML,MLI,primary,2009109,1466965925
Quito,Quito,Pichincha,-0.22,-78.5125,Ecuador,EC,ECU,primary,2011388,1218441993
Minsk,Minsk,Minsk,53.9022,27.5618,Belarus,BY,BLR,primary,2009786,1112348503
Indore,Indore,Madhya Pradesh,22.7206,75.8472,India,IN,IND,,1994397,1356402812
Yinchuan,Yinchuan,Ningxia,38.4795,106.2254,China,CN,CHN,admin,1993088,1156359072
Kananga,Kananga,Kasaï Central,-5.8961,22.4167,Congo (Kinshasa),CD,COD,admin,1971704,1180172460
Peshawar,Peshawar,Khyber Pakhtunkhwa,34,71.5,Pakistan,PK,PAK,admin,1970042,1586851102
Sapporo,Sapporo,Hokkaidō,43.0621,141.3544,Japan,JP,JPN,admin,1961690,1392000195
Eşfahān,Esfahan,Eşfahān,32.6447,51.6675,Iran,IR,IRN,admin,1961260,1364023865
Caracas,Caracas,Distrito Capital,10.5,-66.9333,Venezuela,VE,VEN,primary,1943901,1862748204
Pingxiang,Pingxiang,Jiangxi,27.6333,113.85,China,CN,CHN,minor,1933200,1156066465
Aleppo,Aleppo,Ḩalab,36.2,37.15,Syria,SY,SYR,admin,1916781,1760366651
Tijuana,Tijuana,Baja California,32.525,-117.0333,Mexico,MX,MEX,minor,1922523,1484708778
Almaty,Almaty,Almaty,43.25,76.9,Kazakhstan,KZ,KAZ,admin,1916822,1398351701
Vienna,Vienna,Wien,48.2083,16.3725,Austria,AT,AUT,primary,1911191,1040261752
Thāne,Thane,Mahārāshtra,19.18,72.9633,India,IN,IND,,1886941,1356681152
Sacramento,Sacramento,California,38.5667,-121.4683,United States,US,USA,admin,1898019,1840021491
Blantyre,Blantyre,Blantyre,-15.7861,35.0058,Malawi,MW,MWI,admin,1895973,1454145012
Tainan,Tainan,Tainan,22.9833,120.1833,Taiwan,TW,TWN,admin,1883831,1158061376
Zhuhai,Zhuhai,Guangdong,22.2769,113.5678,China,CN,CHN,minor,1891100,1156722242
Bucharest,Bucharest,Bucureşti,44.4,26.0833,Romania,RO,ROU,primary,1883425,1642414442
Curitiba,Curitiba,Paraná,-25.4297,-49.2719,Brazil,BR,BRA,admin,1879355,1076701712
Multan,Multan,Punjab,30.1978,71.4711,Pakistan,PK,PAK,minor,1871843,1586256291
Xiping,Xiping,Shanxi,40.082,113.2981,China,CN,CHN,minor,1873000,1156898522
Ecatepec,Ecatepec,México,19.6097,-99.06,Mexico,MX,MEX,minor,1857188,1484003694
Jixi,Jixi,Heilongjiang,45.2937,130.965,China,CN,CHN,minor,1862165,1156393765
Saidu Sharif,Saidu Sharif,Khyber Pakhtunkhwa,34.75,72.3572,Pakistan,PK,PAK,minor,1860310,1586619596
Liaoyang,Liaoyang,Liaoning,41.2643,123.1772,China,CN,CHN,,1858768,1156202749
Hamburg,Hamburg,Hamburg,53.55,10,Germany,DE,DEU,admin,1852478,1276041799
Meru,Meru,Meru,0.05,37.65,Kenya,KE,KEN,admin,1833000,1404588252
Brazzaville,Brazzaville,Brazzaville,-4.2667,15.2833,Congo (Brazzaville),CG,COG,primary,1827000,1178340306
Orlando,Orlando,Florida,28.4772,-81.3369,United States,US,USA,,1822394,1840015099
Fuxin,Fuxin,Liaoning,42.0127,121.6486,China,CN,CHN,,1819339,1156141954
Wuwei,Wuwei,Gansu,37.9278,102.6329,China,CN,CHN,minor,1815059,1156760291
Manaus,Manaus,Amazonas,-3.1,-60.0167,Brazil,BR,BRA,admin,1802014,1076607274
Bhopāl,Bhopal,Madhya Pradesh,23.25,77.4167,India,IN,IND,admin,1798218,1356734039
San Jose,San Jose,California,37.3019,-121.8486,United States,US,USA,,1798103,1840021570
Warsaw,Warsaw,Mazowieckie,52.23,21.0111,Poland,PL,POL,primary,1790658,1616024847
Lubumbashi,Lubumbashi,Haut-Katanga,-11.6697,27.4581,Congo (Kinshasa),CD,COD,admin,1786397,1180506234
Davao,Davao,Davao,7.0667,125.6,Philippines,PH,PHL,admin,1776949,1608906877
Haikou,Haikou,Hainan,20.02,110.32,China,CN,CHN,admin,1776141,1156183327
Damascus,Damascus,Dimashq,33.5131,36.2919,Syria,SY,SYR,primary,1754000,1760685964
Shuyangzha,Shuyangzha,Jiangsu,34.1299,118.7734,China,CN,CHN,,1770000,1156051957
Brussels,Brussels,Brussels-Capital Region,50.8353,4.3314,Belgium,BE,BEL,primary,1743000,1056469830
Lusaka,Lusaka,Lusaka,-15.4167,28.2833,Zambia,ZM,ZMB,primary,1742979,1894157390
Hyderabad City,Hyderabad City,Sindh,25.3792,68.3683,Pakistan,PK,PAK,minor,1732693,1586185019
Budapest,Budapest,Budapest,47.4983,19.0408,Hungary,HU,HUN,primary,1723836,1348611435
Shuozhou,Shuozhou,Shanxi,39.3408,112.4292,China,CN,CHN,minor,1714857,1156227167
Cleveland,Cleveland,Ohio,41.4767,-81.6804,United States,US,USA,,1710093,1840000596
Benxi,Benxi,Liaoning,41.292,123.761,China,CN,CHN,,1709538,1156097909
Baiyin,Baiyin,Gansu,36.5448,104.1766,China,CN,CHN,minor,1708751,1156140738
Pittsburgh,Pittsburgh,Pennsylvania,40.4396,-79.9762,United States,US,USA,,1703266,1840001254
Patna,Patna,Bihār,25.61,85.1414,India,IN,IND,admin,1684222,1356821429
Mosul,Mosul,Nīnawá,36.3667,43.1167,Iraq,IQ,IRQ,admin,1694000,1368194914
Caloocan City,Caloocan City,Caloocan,14.65,120.9667,Philippines,PH,PHL,admin,1661584,1608897690
Austin,Austin,Texas,30.3004,-97.7522,United States,US,USA,admin,1687311,1840019590
Sanzhou,Sanzhou,Chongqing,30.82,108.4,China,CN,CHN,,1680000,1156025536
Beihai,Beihai,Guangxi,21.4667,109.1,China,CN,CHN,minor,1680000,1156421449
Mecca,Mecca,Makkah al Mukarramah,21.4225,39.8261,Saudi Arabia,SA,SAU,admin,1675368,1682169241
Heihe,Heihe,Heilongjiang,50.2458,127.4886,China,CN,CHN,minor,1673899,1156339225
Jingdezhen,Jingdezhen,Jiangxi,29.2942,117.2036,China,CN,CHN,minor,1673200,1156038165
Conakry,Conakry,Conakry,9.538,-13.6773,Guinea,GN,GIN,primary,1667864,1324568159
Kampala,Kampala,Kampala,0.3136,32.5811,Uganda,UG,UGA,primary,1659600,1800406299
Cincinnati,Cincinnati,Ohio,39.1413,-84.5061,United States,US,USA,,1662691,1840003814
Recife,Recife,Pernambuco,-8.0539,-34.8808,Brazil,BR,BRA,admin,1653461,1076137337
Yushan,Yushan,Jiangsu,31.3867,120.9766,China,CN,CHN,minor,1651200,1156245000
Zhongli,Zhongli,Taoyuan,24.965,121.2168,Taiwan,TW,TWN,,1632616,1158025380
Kansas City,Kansas City,Missouri,39.1239,-94.5541,United States,US,USA,,1636715,1840008535
Manhattan,Manhattan,New York,40.7834,-73.9662,United States,US,USA,,1628706,1840034000
Bilāspur,Bilaspur,Chhattīsgarh,22.15,82.0167,India,IN,IND,,1625502,1356820491
Semarang,Semarang,Jawa Tengah,-6.9667,110.4167,Indonesia,ID,IDN,admin,1621384,1360745537
Ludhiāna,Ludhiana,Punjab,30.9083,75.8486,India,IN,IND,,1618879,1356929498
Novosibirsk,Novosibirsk,Novosibirskaya Oblast’,55.0333,82.9167,Russia,RU,RUS,admin,1602915,1643399240
Chengtangcun,Chengtangcun,Shandong,35.0833,117.15,China,CN,CHN,,1603659,1156883901
Āgra,Agra,Uttar Pradesh,27.1724,78.0131,India,IN,IND,,1592000,1356187395
Karaj,Karaj,Alborz,35.8327,50.9915,Iran,IR,IRN,admin,1592492,1364258511
Wenzhou,Wenzhou,Zhejiang,27.9991,120.6561,China,CN,CHN,,1588700,1156188829
Indianapolis,Indianapolis,Indiana,39.7771,-86.1458,United States,US,USA,admin,1588961,1840030084
León de los Aldama,Leon de los Aldama,Guanajuato,21.1167,-101.6833,Mexico,MX,MEX,minor,1579803,1484811199
Puebla,Puebla,Puebla,19.0333,-98.1833,Mexico,MX,MEX,admin,1576259,1484416394
Kalyān,Kalyan,Mahārāshtra,19.2502,73.1602,India,IN,IND,,1576614,1356172246
Madurai,Madurai,Tamil Nādu,9.9197,78.1194,India,IN,IND,minor,1561129,1356257289
Mbuji-Mayi,Mbuji-Mayi,Kasaï Oriental,-6.1209,23.5967,Congo (Kinshasa),CD,COD,admin,1559073,1180399586
Hebi,Hebi,Henan,35.7497,114.2887,China,CN,CHN,,1569208,1156114258
Shīrāz,Shiraz,Fārs,29.61,52.5425,Iran,IR,IRN,admin,1565572,1364432238
Jamshedpur,Jamshedpur,Jharkhand,22.8,86.1833,India,IN,IND,,1558000,1356501259
Columbus,Columbus,Ohio,39.9862,-82.985,United States,US,USA,admin,1562009,1840003760
Tabrīz,Tabriz,Āz̄arbāyjān-e Sharqī,38.0833,46.2833,Iran,IR,IRN,admin,1558693,1364141756
Maracaibo,Maracaibo,Zulia,10.6333,-71.6333,Venezuela,VE,VEN,admin,1551539,1862072711
Kawasaki,Kawasaki,Kanagawa,35.5167,139.7,Japan,JP,JPN,,1539522,1392003356
Aba,Aba,Abia,5.1167,7.3667,Nigeria,NG,NGA,minor,1530000,1566262000
Palembang,Palembang,Sumatera Selatan,-2.9833,104.7644,Indonesia,ID,IDN,admin,1535952,1360902897
Zhangjiajie,Zhangjiajie,Hunan,29.1255,110.4844,China,CN,CHN,minor,1537900,1156072884
Kōbe,Kobe,Hyōgo,34.6913,135.183,Japan,JP,JPN,admin,1513193,1392978082
Charlotte,Charlotte,North Carolina,35.208,-80.8304,United States,US,USA,,1512923,1840014557
Changshu,Changshu,Jiangsu,31.65,120.7333,China,CN,CHN,,1510100,1156901538
Lianjiang,Lianjiang,Guangdong,21.6146,110.2794,China,CN,CHN,,1509400,1156944106
Ximeicun,Ximeicun,Fujian,24.9633,118.3811,China,CN,CHN,,1508000,1156173813
Jianguang,Jianguang,Jiangxi,28.1958,115.7833,China,CN,CHN,,1507402,1156545200
Yucheng,Yucheng,Sichuan,29.9888,103.0007,China,CN,CHN,minor,1507258,1156817119
Belém,Belem,Pará,-1.4558,-48.5039,Brazil,BR,BRA,admin,1499641,1076646823
Guiping,Guiping,Guangxi,23.4,110.0833,China,CN,CHN,minor,1496904,1156165517
Leizhou,Leizhou,Guangdong,20.9147,110.0806,China,CN,CHN,minor,1494700,1156863840
Gwangju,Gwangju,Gwangju,35.1667,126.9167,South Korea,KR,KOR,admin,1490092,1410000087
Munich,Munich,Bavaria,48.1375,11.575,Germany,DE,DEU,admin,1488202,1276692352
Nāsik,Nasik,Mahārāshtra,20,73.7833,India,IN,IND,,1486053,1356562598
Porto Alegre,Porto Alegre,Rio Grande do Sul,-30.0328,-51.23,Brazil,BR,BRA,admin,1484941,1076658221
Valencia,Valencia,Carabobo,10.1667,-68,Venezuela,VE,VEN,admin,1484430,1862309871
Onitsha,Onitsha,Anambra,6.1667,6.7833,Nigeria,NG,NGA,minor,1483000,1566593483
Abu Dhabi,Abu Dhabi,Abū Z̧aby,24.4511,54.3969,United Arab Emirates,AE,ARE,primary,1483000,1784176710
Virginia Beach,Virginia Beach,Virginia,36.7335,-76.0435,United States,US,USA,,1478868,1840003871
Daejeon,Daejeon,Daejeon,36.351,127.385,South Korea,KR,KOR,admin,1475221,1410993875
Zapopan,Zapopan,Jalisco,20.7167,-103.4,Mexico,MX,MEX,minor,1476491,1484198680
Yekaterinburg,Yekaterinburg,Sverdlovskaya Oblast’,56.8356,60.6128,Russia,RU,RUS,admin,1468833,1643582706
Huazhou,Huazhou,Henan,32.6832,112.079,China,CN,CHN,minor,1468061,1156796734
Kyōto,Kyoto,Kyōto,35.0117,135.7683,Japan,JP,JPN,admin,1464890,1392622735
Shuangyashan,Shuangyashan,Heilongjiang,46.6388,131.1545,China,CN,CHN,minor,1462626,1156245904
Pizhou,Pizhou,Jiangsu,34.3422,118.0097,China,CN,CHN,,1458038,1156114238
El Kelaa des Srarhna,El Kelaa des Srarhna,Marrakech-Safi,32.05,-7.4,Morocco,MA,MAR,,1450021,1504846488
Kharkiv,Kharkiv,Kharkivs’ka Oblast’,50,36.2292,Ukraine,UA,UKR,admin,1446107,1804588111
Yangshe,Yangshe,Jiangsu,31.8775,120.5512,China,CN,CHN,minor,1432044,1156203000
Guyuan,Guyuan,Ningxia,36.008,106.2782,China,CN,CHN,,1426000,1156817541
Khulna,Khulna,Khulna,22.8167,89.55,Bangladesh,BD,BGD,admin,1400689,1050667339
Muscat,Muscat,Masqaţ,23.6139,58.5922,Oman,OM,OMN,primary,1421409,1512035506
Bronx,Bronx,New York,40.8501,-73.8662,United States,US,USA,,1418207,1840033999
Gaozhou,Gaozhou,Guangdong,21.9135,110.8481,China,CN,CHN,,1414100,1156785303
Chizhou,Chizhou,Anhui,30.6583,117.4849,China,CN,CHN,minor,1402518,1156131504
Farīdābād,Faridabad,Haryāna,28.4353,77.3147,India,IN,IND,,1394000,1356013205
Ulaanbaatar,Ulaanbaatar,Ulaanbaatar,47.9214,106.9055,Mongolia,MN,MNG,primary,1396288,1496024767
Goiânia,Goiania,Goiás,-16.6806,-49.2564,Brazil,BR,BRA,admin,1393575,1076034054
Fuqing,Fuqing,Fujian,25.7232,119.3735,China,CN,CHN,minor,1390487,1156893569
Belgrade,Belgrade,Beograd,44.8167,20.4667,Serbia,RS,SRB,primary,1378682,1688374696
Pingdu,Pingdu,Shandong,36.7833,119.9556,China,CN,CHN,,1378900,1156157078
Milan,Milan,Lombardy,45.4669,9.19,Italy,IT,ITA,admin,1366180,1380724377
Aurangābād,Aurangabad,Mahārāshtra,19.88,75.32,India,IN,IND,,1371330,1356840670
Yutan,Yutan,Hunan,28.3147,112.554,China,CN,CHN,minor,1368117,1156592042
Milwaukee,Milwaukee,Wisconsin,43.0642,-87.9673,United States,US,USA,,1365787,1840003046
Huangshan,Huangshan,Anhui,29.7132,118.3151,China,CN,CHN,minor,1358980,1156527426
Auckland,Auckland,Auckland,-36.85,174.7833,New Zealand,NZ,NZL,admin,1346091,1554435911
Makassar,Makassar,Sulawesi Selatan,-5.1331,119.4136,Indonesia,ID,IDN,admin,1338663,1360051337
Santiago,Santiago,Cibao Norte,19.45,-70.7,Dominican Republic,DO,DOM,admin,1343423,1214985348
Prague,Prague,"Praha, Hlavní Město",50.0833,14.4167,Czechia,CZ,CZE,primary,1335084,1203744823
Rājkot,Rajkot,Gujarāt,22.2969,70.7984,India,IN,IND,,1335397,1356317190
Liangshi,Liangshi,Hunan,27.2578,111.7351,China,CN,CHN,,1335900,1156366507
Córdoba,Cordoba,Córdoba,-31.4167,-64.1833,Argentina,AR,ARG,admin,1329604,1032803249
Guarulhos,Guarulhos,São Paulo,-23.4667,-46.5333,Brazil,BR,BRA,,1324781,1076730420
Al Başrah,Al Basrah,Al Başrah,30.515,47.81,Iraq,IQ,IRQ,admin,1326564,1368714645
Saitama,Saitama,Saitama,35.8617,139.6453,Japan,JP,JPN,admin,1320571,1392017719
Juárez,Juarez,Chihuahua,31.7386,-106.487,Mexico,MX,MEX,minor,1321004,1484840083
Montevideo,Montevideo,Montevideo,-34.8667,-56.1667,Uruguay,UY,URY,primary,1319108,1858107000
Xintai,Xintai,Shandong,35.91,117.78,China,CN,CHN,,1315942,1156761230
Wusong,Wusong,Anhui,30.9333,117.7667,China,CN,CHN,minor,1311726,1156264408
Meerut,Meerut,Uttar Pradesh,28.99,77.7,India,IN,IND,,1305429,1356390476
Yushu,Yushu,Jilin,44.8249,126.5451,China,CN,CHN,,1304436,1156326773
Rongcheng,Rongcheng,Yunnan,26.2312,104.0966,China,CN,CHN,,1302891,1156122888
Huazhou,Huazhou,Guangdong,21.654,110.6294,China,CN,CHN,,1302100,1156282637
Yangquan,Yangquan,Shanxi,37.8576,113.5762,China,CN,CHN,minor,1300000,1156157844
Adelaide,Adelaide,South Australia,-34.9275,138.6,Australia,AU,AUS,admin,1295714,1036538171
Baishan,Baishan,Jilin,41.9377,126.4179,China,CN,CHN,minor,1296127,1156960624
Dayan,Dayan,Yunnan,26.8808,100.2208,China,CN,CHN,,1296000,1156828380
Haicheng,Haicheng,Liaoning,40.8523,122.7474,China,CN,CHN,minor,1293877,1156052713
Jiangyin,Jiangyin,Jiangsu,31.9087,120.2653,China,CN,CHN,,1285785,1156033234
Huaiyin,Huaiyin,Jiangsu,33.5819,119.028,China,CN,CHN,,1264000,1156662372
Wuzhong,Wuzhong,Ningxia,37.9874,106.1919,China,CN,CHN,minor,1284000,1156139322
Cacuaco,Cacuaco,Luanda,-8.7833,13.3667,Angola,AO,AGO,,1279488,1024559448
Barranquilla,Barranquilla,Atlántico,10.9639,-74.7964,Colombia,CO,COL,admin,1274250,1170179113
Sofia,Sofia,Sofia-Grad,42.6979,23.3217,Bulgaria,BG,BGR,primary,1277411,1100762037
Soweto,Soweto,Gauteng,-26.2678,27.8586,South Africa,ZA,ZAF,,1271628,1710627007
Jabalpur,Jabalpur,Madhya Pradesh,23.1667,79.9333,India,IN,IND,,1267564,1356115460
Rucheng,Rucheng,Jiangsu,32.3852,120.5634,China,CN,CHN,minor,1267066,1156323529
Nizhniy Novgorod,Nizhniy Novgorod,Nizhegorodskaya Oblast’,56.3269,44.0075,Russia,RU,RUS,admin,1264075,1643012126
Shaoyang,Shaoyang,Jiangsu,32.9387,119.8404,China,CN,CHN,minor,1253548,1156668366
Dhanbād,Dhanbad,Jharkhand,23.7928,86.435,India,IN,IND,,1246000,1356103392
Comayagüela,Comayaguela,Francisco Morazán,14.0833,-87.2167,Honduras,HN,HND,,1250000,1340762485
Laiwu,Laiwu,Shandong,36.1833,117.6667,China,CN,CHN,,1248636,1156207332
Sharjah,Sharjah,Ash Shāriqah,25.3575,55.3919,United Arab Emirates,AE,ARE,admin,1247749,1784152993
Jingling,Jingling,Hubei,30.6667,113.1667,China,CN,CHN,,1247400,1156060544
Kazan,Kazan,Tatarstan,55.7908,49.1144,Russia,RU,RUS,admin,1243500,1643101260
Suwon,Suwon,Gyeonggi,37.2858,127.01,South Korea,KR,KOR,admin,1234300,1410679777
Yongcheng,Yongcheng,Henan,33.9317,116.4459,China,CN,CHN,,1240382,1156841802
Calgary,Calgary,Alberta,51.05,-114.0667,Canada,CA,CAN,,1239220,1124690423
Cần Thơ,Can Tho,Cần Thơ,10.0333,105.7833,Vietnam,VN,VNM,admin,1237300,1704783472
Abuja,Abuja,Federal Capital Territory,9.0556,7.4914,Nigeria,NG,NGA,primary,1235880,1566342270
Mandalay,Mandalay,Mandalay,21.9831,96.0844,Myanmar,MM,MMR,admin,1225546,1104468217
Beidao,Beidao,Gansu,34.602,105.918,China,CN,CHN,minor,1225000,1156137209
Xiangshui,Xiangshui,Guizhou,26.5964,104.8314,China,CN,CHN,,1221000,1156328867
Dadukou,Dadukou,Sichuan,26.5849,101.7149,China,CN,CHN,minor,1214121,1156901342
Vila Velha,Vila Velha,Amapá,3.2167,-51.2167,Brazil,BR,BRA,,1209091,1076575691
Chelyabinsk,Chelyabinsk,Chelyabinskaya Oblast’,55.15,61.4,Russia,RU,RUS,admin,1202371,1643224011
Mombasa,Mombasa,Mombasa,-4.05,39.6667,Kenya,KE,KEN,admin,1200000,1404512373
Providence,Providence,Rhode Island,41.823,-71.4187,United States,US,USA,admin,1203230,1840003289
Vārānasi,Varanasi,Uttar Pradesh,25.3189,83.0128,India,IN,IND,,1198491,1356145782
Qom,Qom,Qom,34.64,50.8764,Iran,IR,IRN,admin,1201158,1364701633
Zhangye,Zhangye,Gansu,38.9355,100.4553,China,CN,CHN,minor,1199515,1156180353
Hiroshima,Hiroshima,Hiroshima,34.4,132.45,Japan,JP,JPN,admin,1198021,1392373695
Maiduguri,Maiduguri,Borno,11.8333,13.15,Nigeria,NG,NGA,admin,1197497,1566540296
Maputo,Maputo,Maputo,-25.9153,32.5764,Mozambique,MZ,MOZ,primary,1191613,1508074843
Doha,Doha,Ad Dawḩah,25.3,51.5333,Qatar,QA,QAT,primary,1186023,1634459660
Rosario,Rosario,Santa Fe,-32.9575,-60.6394,Argentina,AR,ARG,minor,1193605,1032770677
Pikine,Pikine,Dakar,14.75,-17.4,Senegal,SN,SEN,,1170791,1686165071
Xinyu,Xinyu,Jiangxi,27.795,114.9242,China,CN,CHN,minor,1186700,1156138735
Ahvāz,Ahvaz,Khūzestān,31.3203,48.6692,Iran,IR,IRN,admin,1184788,1364350188
Jacksonville,Jacksonville,Florida,30.3322,-81.6749,United States,US,USA,,1181496,1840015031
Medina,Medina,Al Madīnah al Munawwarah,24.4667,39.6,Saudi Arabia,SA,SAU,admin,1180770,1682345785
Srīnagar,Srinagar,Jammu and Kashmīr,34.0911,74.8061,India,IN,IND,admin,1180570,1356442950
Omsk,Omsk,Omskaya Oblast’,54.9667,73.3833,Russia,RU,RUS,admin,1178391,1643360863
Liaoyuan,Liaoyuan,Jilin,42.8976,125.1381,China,CN,CHN,,1176239,1156249772
Cilacap,Cilacap,Jawa Tengah,-7.7167,109.017,Indonesia,ID,IDN,minor,1174964,1360503809
Yingtan,Yingtan,Jiangxi,28.2333,117,China,CN,CHN,,1175000,1156301061
Bandar Lampung,Bandar Lampung,Lampung,-5.4294,105.2625,Indonesia,ID,IDN,admin,1166761,1360243491
Samara,Samara,Samarskaya Oblast’,53.1833,50.1167,Russia,RU,RUS,admin,1169719,1643205757
Guankou,Guankou,Hunan,28.2363,113.6984,China,CN,CHN,minor,1168056,1156249346
Ulsan,Ulsan,Ulsan,35.55,129.3167,South Korea,KR,KOR,admin,1166033,1410134602
Dingzhou,Dingzhou,Hebei,38.5158,114.9845,China,CN,CHN,,1165182,1156656582
Campinas,Campinas,São Paulo,-22.9009,-47.0573,Brazil,BR,BRA,,1164098,1076145766
Lianyuan,Lianyuan,Hunan,27.6961,111.6659,China,CN,CHN,minor,1162928,1156490109
Dakar,Dakar,Dakar,14.7319,-17.4572,Senegal,SN,SEN,primary,1146053,1686604760
Rongcheng,Rongcheng,Hubei,29.8239,112.9019,China,CN,CHN,minor,1162770,1156102432
Kaiyuan,Kaiyuan,Henan,36.0656,113.8153,China,CN,CHN,minor,1160000,1156441554
Nay Pyi Taw,Nay Pyi Taw,Nay Pyi Taw,19.7475,96.115,Myanmar,MM,MMR,primary,1160242,1104838105
Kigali,Kigali,Kigali,-1.9536,30.0606,Rwanda,RW,RWA,primary,1156663,1646923541
Leiyang,Leiyang,Hunan,26.4179,112.8457,China,CN,CHN,minor,1151554,1156057789
Yichun,Yichun,Heilongjiang,47.7235,128.8893,China,CN,CHN,minor,1148126,1156757274
Benin City,Benin City,Edo,6.3176,5.6145,Nigeria,NG,NGA,admin,1147188,1566080151
Birmingham,Birmingham,Birmingham,52.48,-1.9025,United Kingdom,GB,GBR,,1137100,1826423213
Xiantao,Xiantao,Hubei,30.3833,113.4,China,CN,CHN,,1140100,1156216927
Amritsar,Amritsar,Punjab,31.6269,74.877,India,IN,IND,,1132383,1356926507
Callao,Callao,Callao,-12.0611,-77.1333,Peru,PE,PER,admin,1129854,1604422141
Monterrey,Monterrey,Nuevo León,25.6667,-100.3,Mexico,MX,MEX,admin,1135512,1484559591
Alīgarh,Aligarh,Uttar Pradesh,27.88,78.08,India,IN,IND,,1131160,1356076391
Yingchuan,Yingchuan,Henan,34.1511,113.4733,China,CN,CHN,minor,1131896,1156748426
Ciudad Nezahualcóyotl,Ciudad Nezahualcoyotl,México,19.41,-99.03,Mexico,MX,MEX,,1109363,1484016661
Tripoli,Tripoli,Ţarābulus,32.8752,13.1875,Libya,LY,LBY,primary,1126000,1434201852
Nampo,Nampo,P’yŏngnam,38.7689,125.4505,North Korea,KP,PRK,,1127000,1408358410
Rostov,Rostov,Rostovskaya Oblast’,47.2333,39.7167,Russia,RU,RUS,admin,1125299,1643013518
Tegucigalpa,Tegucigalpa,Francisco Morazán,14.0942,-87.2067,Honduras,HN,HND,primary,1126534,1340344059
Tbilisi,Tbilisi,Tbilisi,41.7225,44.7925,Georgia,GE,GEO,primary,1118035,1268203191
Guwāhāti,Guwahati,Assam,26.1722,91.7458,India,IN,IND,,1116267,1356593800
Ufa,Ufa,Bashkortostan,54.7261,55.9475,Russia,RU,RUS,admin,1115560,1643722928
Fès,Fes,Fès-Meknès,34.0433,-5.0033,Morocco,MA,MAR,admin,1112072,1504861997
Biên Hòa,Bien Hoa,Đồng Nai,10.9508,106.8221,Vietnam,VN,VNM,admin,1104000,1704863046
N’Djamena,N'Djamena,Ville de N’Djaména,12.11,15.05,Chad,TD,TCD,primary,1092066,1148708596
Ikare,Ikare,Ondo,7.5304,5.76,Nigeria,NG,NGA,minor,1099931,1566683694
Salt Lake City,Salt Lake City,Utah,40.7777,-111.9306,United States,US,USA,admin,1098526,1840021383
Bhilai,Bhilai,Chhattīsgarh,21.2186,81.4314,India,IN,IND,,1097000,1356071083
Hāora,Haora,West Bengal,22.5736,88.3251,India,IN,IND,,1077075,1356986516
Tamale,Tamale,Northern,9.4075,-0.8533,Ghana,GH,GHA,admin,1095808,1288890688
Xibeijie,Xibeijie,Gansu,39.737,98.5049,China,CN,CHN,minor,1095947,1156960560
Copenhagen,Copenhagen,Hovedstaden,55.6805,12.5615,Denmark,DK,DNK,primary,1085000,1208763942
Nezahualcóyotl,Nezahualcoyotl,México,19.4,-98.9889,Mexico,MX,MEX,minor,1077208,1484074285
Hanchuan,Hanchuan,Hubei,30.652,113.8274,China,CN,CHN,,1092700,1156149248
Gongzhuling,Gongzhuling,Jilin,43.5036,124.8088,China,CN,CHN,,1092692,1156696810
Krasnoyarsk,Krasnoyarsk,Krasnoyarskiy Kray,56.0089,92.8719,Russia,RU,RUS,admin,1083865,1643544975
Cologne,Cologne,North Rhine-Westphalia,50.9422,6.9578,Germany,DE,DEU,,1083498,1276015998
Yicheng,Yicheng,Jiangsu,31.3697,119.8239,China,CN,CHN,minor,1082929,1156292419
Zhufeng,Zhufeng,Shandong,36,119.4167,China,CN,CHN,,1081960,1156522825
São Gonçalo,Sao Goncalo,Rio de Janeiro,-22.8269,-43.0539,Brazil,BR,BRA,,1077687,1076485783
Nashville,Nashville,Tennessee,36.1715,-86.7843,United States,US,USA,admin,1081903,1840036155
Yerevan,Yerevan,Yerevan,40.1814,44.5144,Armenia,AM,ARM,primary,1075800,1051074169
Nur-Sultan,Nur-Sultan,Astana,51.1333,71.4333,Kazakhstan,KZ,KAZ,primary,1078362,1398516045
Nouakchott,Nouakchott,,18.0858,-15.9785,Mauritania,MR,MRT,primary,1077169,1478414984
Vereeniging,Vereeniging,Gauteng,-26.6736,27.9319,South Africa,ZA,ZAF,,1074000,1710271883
Richmond,Richmond,Virginia,37.5295,-77.4756,United States,US,USA,admin,1075798,1840001698
São Luís,Sao Luis,Maranhão,-2.53,-44.3028,Brazil,BR,BRA,admin,1073893,1076819308
Rānchi,Ranchi,Jharkhand,23.3556,85.3347,India,IN,IND,admin,1073440,1356110588
San Pedro Sula,San Pedro Sula,Cortés,15.5,-88.0333,Honduras,HN,HND,admin,1073824,1340568412
Taixing,Taixing,Jiangsu,32.1724,120.0142,China,CN,CHN,minor,1073921,1156331200
Gwalior,Gwalior,Madhya Pradesh,26.215,78.1931,India,IN,IND,,1069276,1356363967
Memphis,Memphis,Tennessee,35.1046,-89.9773,United States,US,USA,,1066967,1840015457
Goyang,Goyang,Gyeonggi,37.6564,126.835,South Korea,KR,KOR,minor,1061929,1410511255
Bezwāda,Bezwada,Andhra Pradesh,16.5167,80.6167,India,IN,IND,,1048240,1356807575
Edmonton,Edmonton,Alberta,53.5344,-113.4903,Canada,CA,CAN,admin,1062643,1124290735
Bishkek,Bishkek,Bishkek,42.8667,74.5667,Kyrgyzstan,KG,KGZ,primary,1053900,1417191971
Mizhou,Mizhou,Shandong,35.99,119.3801,China,CN,CHN,minor,1060000,1156935002
Tunis,Tunis,Tunis,36.8008,10.18,Tunisia,TN,TUN,primary,1056247,1788742103
Xishan,Xishan,Hunan,27.6609,113.4946,China,CN,CHN,minor,1060000,1156155575
Ezhou,Ezhou,Hubei,30.3972,114.8842,China,CN,CHN,minor,1059700,1156414637
Barquisimeto,Barquisimeto,Lara,10.0678,-69.3467,Venezuela,VE,VEN,admin,1059092,1862860739
Sendai,Sendai,Miyagi,38.2683,140.8694,Japan,JP,JPN,admin,1058070,1392457903
Hegang,Hegang,Heilongjiang,47.3139,130.2775,China,CN,CHN,minor,1058665,1156541759
Kathmandu,Kathmandu,Bāgmatī,27.7167,85.3667,Nepal,NP,NPL,primary,975453,1524589448
Mexicali,Mexicali,Baja California,32.6633,-115.4678,Mexico,MX,MEX,admin,1049792,1484788702
Voronezh,Voronezh,Voronezhskaya Oblast’,51.6717,39.2106,Russia,RU,RUS,admin,1047549,1643811064
Perm,Perm,Permskiy Kray,58.0139,56.2489,Russia,RU,RUS,admin,1048005,1643294442
Changwon,Changwon,Gyeongnam,35.2281,128.6811,South Korea,KR,KOR,admin,1046054,1410592618
Zhongwei,Zhongwei,Ningxia,37.5139,105.1884,China,CN,CHN,minor,1046000,1156956616
Shouguang,Shouguang,Shandong,36.8833,118.7333,China,CN,CHN,,1039205,1156787809
Bogor,Bogor,Jawa Barat,-6.5917,106.8,Indonesia,ID,IDN,,1030720,1360771925
Raleigh,Raleigh,North Carolina,35.8325,-78.6435,United States,US,USA,admin,1038738,1840014497
Cartagena,Cartagena,Bolívar,10.4236,-75.5253,Colombia,CO,COL,admin,1036412,1170886102
Chandīgarh,Chandigarh,Chandīgarh,30.7353,76.7911,India,IN,IND,admin,1026459,1356739179
Matola,Matola,Maputo,-25.9667,32.4667,Mozambique,MZ,MOZ,,1032197,1508768577
Jodhpur,Jodhpur,Rājasthān,26.2944,73.0278,India,IN,IND,,1033918,1356727084
Ogbomoso,Ogbomoso,Oyo,8.1333,4.25,Nigeria,NG,NGA,minor,1032000,1566373448
Shymkent,Shymkent,Ongtüstik Qazaqstan,42.3,69.6,Kazakhstan,KZ,KAZ,admin,1028673,1398791401
Niamey,Niamey,Niamey,13.5086,2.1111,Niger,NE,NER,primary,1026848,1562932886
Taizhou,Taizhou,Zhejiang,28.6583,121.4221,China,CN,CHN,minor,1030200,1156322307
Managua,Managua,Managua,12.15,-86.2667,Nicaragua,NI,NIC,primary,1028808,1558296252
Bagam,Bagam,Kepulauan Riau,1.0678,104.0167,Indonesia,ID,IDN,,1029808,1360405604
Shubrā al Khaymah,Shubra al Khaymah,Al Qalyūbīyah,30.1286,31.2422,Egypt,EG,EGY,,1025569,1818909612
Maceió,Maceio,Alagoas,-9.6658,-35.735,Brazil,BR,BRA,admin,1025360,1076440479
Monrovia,Monrovia,Montserrado,6.3106,-10.8047,Liberia,LR,LBR,primary,1021762,1430477826
Wafangdian,Wafangdian,Liaoning,39.6271,121.9972,China,CN,CHN,,1024876,1156476417
Zhongxiang,Zhongxiang,Hubei,31.169,112.5853,China,CN,CHN,,1022514,1156631720
Odesa,Odesa,Odes’ka Oblast’,46.4775,30.7326,Ukraine,UA,UKR,admin,1017699,1804178102
Port-au-Prince,Port-au-Prince,Ouest,18.5425,-72.3386,Haiti,HT,HTI,primary,987310,1332401940
New Orleans,New Orleans,Louisiana,30.0687,-89.9288,United States,US,USA,,1020886,1840001839
Villahermosa,Villahermosa,Tabasco,17.9892,-92.9281,Mexico,MX,MEX,admin,1013484,1484460894
Thủ Đức,Thu Duc,Hồ Chí Minh,10.7924,106.7518,Vietnam,VN,VNM,minor,1013795,1704361621
Volgograd,Volgograd,Volgogradskaya Oblast’,48.7086,44.5147,Russia,RU,RUS,admin,1015586,1643577201
Mysore,Mysore,Karnātaka,12.3086,76.6531,India,IN,IND,,1014227,1356779323
Islamabad,Islamabad,Islāmābād,33.6989,73.0369,Pakistan,PK,PAK,primary,1014825,1586306717
Xinyi,Xinyi,Guangdong,22.3559,110.9369,China,CN,CHN,,1013900,1156936644
Raipur,Raipur,Chhattīsgarh,21.2379,81.6337,India,IN,IND,admin,1010087,1356374983
Arequipa,Arequipa,Arequipa,-16.3988,-71.5369,Peru,PE,PER,admin,1008290,1604723954
Port Harcourt,Port Harcourt,Rivers,4.75,7,Nigeria,NG,NGA,admin,1005904,1566070649
Louisville,Louisville,Kentucky,38.1663,-85.6485,United States,US,USA,,1005654,1840030815
Zaoyang,Zaoyang,Hubei,32.1287,112.7581,China,CN,CHN,,1004741,1156197076
Shuizhai,Shuizhai,Henan,33.4433,114.8994,China,CN,CHN,,1003698,1156462734
Xingyi,Xingyi,Guizhou,25.091,104.9011,China,CN,CHN,,1004132,1156255316
Kota,Kota,Rājasthān,25.18,75.83,India,IN,IND,,1001694,1356820310
Quetta,Quetta,Balochistān,30.192,67.007,Pakistan,PK,PAK,admin,1001205,1586556108
Ottawa,Ottawa,Ontario,45.4247,-75.695,Canada,CA,CAN,primary,989567,1124399363
Stockholm,Stockholm,Stockholm,59.3294,18.0686,Sweden,SE,SWE,primary,975819,1752425602
Asmara,Asmara,Ma’ākel,15.3333,38.9167,Eritrea,ER,ERI,primary,963000,1232791236
Freetown,Freetown,Western Area,8.4833,-13.2331,Sierra Leone,SL,SLE,primary,951000,1694085071
Vientiane,Vientiane,Viangchan,17.9667,102.6,Laos,LA,LAO,primary,948487,1418732714
Jerusalem,Jerusalem,Jerusalem,31.7833,35.2167,Israel,IL,ISR,primary,919438,1376261644
Bangui,Bangui,Bangui,4.3732,18.5628,Central African Republic,CF,CAF,primary,889231,1140080881
Panama City,Panama City,Panamá,9,-79.5,Panama,PA,PAN,primary,880691,1591672475
Amsterdam,Amsterdam,Noord-Holland,52.3667,4.8833,Netherlands,NL,NLD,primary,862965,1528355309
Lomé,Lome,Maritime,6.1319,1.2228,Togo,TG,TGO,primary,837437,1768409132
Libreville,Libreville,Estuaire,0.3901,9.4544,Gabon,GA,GAB,primary,797003,1266952885
Zagreb,Zagreb,"Zagreb, Grad",45.8131,15.9772,Croatia,HR,HRV,primary,790017,1191233290
Dushanbe,Dushanbe,Dushanbe,38.5731,68.7864,Tajikistan,TJ,TJK,primary,778500,1762930616
Lilongwe,Lilongwe,Lilongwe,-13.9833,33.7833,Malawi,MW,MWI,primary,781538,1454688499
Cotonou,Cotonou,Littoral,6.402,2.518,Benin,BJ,BEN,primary,762000,1204955174
Colombo,Colombo,Western,6.9167,79.8333,Sri Lanka,LK,LKA,primary,752993,1144251314
Pretoria,Pretoria,Gauteng,-25.7464,28.1881,South Africa,ZA,ZAF,primary,741651,1710176249
Winnipeg,Winnipeg,Manitoba,49.8844,-97.1464,Canada,CA,CAN,admin,705244,1124224963
Quebec City,Quebec City,Quebec,46.8139,-71.2081,Canada,CA,CAN,admin,705103,1124823933
Oslo,Oslo,Oslo,59.9111,10.7528,Norway,NO,NOR,primary,693494,1578324706
Athens,Athens,Attikí,37.9842,23.7281,Greece,GR,GRC,primary,664046,1300715560
Bujumbura,Bujumbura,Bujumbura Mairie,-3.3825,29.3611,Burundi,BI,BDI,primary,658859,1108101689
Helsinki,Helsinki,Uusimaa,60.1756,24.9342,Finland,FI,FIN,primary,642045,1246177997
Skopje,Skopje,Skopje,41.9833,21.4333,Macedonia,MK,MKD,primary,640000,1807600615
Chisinau,Chisinau,Chişinău,47.0228,28.8353,Moldova,MD,MDA,primary,639000,1498011437
Riga,Riga,Rīga,56.9475,24.1069,Latvia,LV,LVA,primary,614618,1428586192
Kingston,Kingston,Kingston,17.9714,-76.7931,Jamaica,JM,JAM,primary,580000,1388709177
Rabat,Rabat,Rabat-Salé-Kénitra,34.0253,-6.8361,Morocco,MA,MAR,primary,572717,1504023252
Vilnius,Vilnius,Vilniaus Miestas,54.6833,25.2833,Lithuania,LT,LTU,primary,574147,1440887149
San Salvador,San Salvador,San Salvador,13.6989,-89.1914,El Salvador,SV,SLV,primary,567698,1222647454
Djibouti,Djibouti,Djibouti,11.595,43.1481,Djibouti,DJ,DJI,primary,562000,1262028958
Dublin,Dublin,Dublin,53.3497,-6.2603,Ireland,IE,IRL,primary,553165,1372595407
The Hague,The Hague,Zuid-Holland,52.08,4.31,Netherlands,NL,NLD,primary,537833,1528799905
Asunción,Asuncion,Asunción,-25.3,-57.6333,Paraguay,PY,PRY,primary,524190,1600057911
Lisbon,Lisbon,Lisboa,38.708,-9.139,Portugal,PT,PRT,primary,506654,1620619017
Bratislava,Bratislava,Bratislavský,48.1447,17.1128,Slovakia,SK,SVK,primary,475503,1703195001
Kitchener,Kitchener,Ontario,43.4186,-80.4728,Canada,CA,CAN,,470015,1124158530
Tallinn,Tallinn,Harjumaa,59.4372,24.745,Estonia,EE,EST,primary,438341,1233260021
Beirut,Beirut,Beyrouth,33.8869,35.5131,Lebanon,LB,LBN,primary,361366,1422847713
Cape Town,Cape Town,Western Cape,-33.925,18.425,South Africa,ZA,ZAF,primary,433688,1710680650
Tirana,Tirana,Tiranë,41.33,19.82,Albania,AL,ALB,primary,418495,1008162156
Wellington,Wellington,Wellington,-41.2889,174.7772,New Zealand,NZ,NZL,primary,418500,1554772152
Dodoma,Dodoma,Dodoma,-6.1835,35.746,Tanzania,TZ,TZA,primary,410956,1834288497
Halifax,Halifax,Nova Scotia,44.6475,-63.5906,Canada,CA,CAN,admin,403131,1124130981
Bissau,Bissau,Bissau,11.8592,-15.5956,Guinea-Bissau,GW,GNB,primary,395954,1624168850
Canberra,Canberra,Australian Capital Territory,-35.2931,149.1269,Australia,AU,AUS,primary,381488,1036142029
Juba,Juba,Central Equatoria,4.85,31.6,South Sudan,SS,SSD,primary,372410,1728444337
Yamoussoukro,Yamoussoukro,Yamoussoukro,6.8161,-5.2742,Côte d'Ivoire,CI,CIV,primary,355573,1384683557
Victoria,Victoria,British Columbia,48.4283,-123.3647,Canada,CA,CAN,admin,335696,1124147219
Maseru,Maseru,Maseru,-29.31,27.48,Lesotho,LS,LSO,primary,330790,1426977668
Nicosia,Nicosia,Lefkosía,35.1725,33.365,Cyprus,CY,CYP,primary,330000,1196944155
Windhoek,Windhoek,Khomas,-22.57,17.0836,Namibia,NA,NAM,primary,322500,1516802003
Port Moresby,Port Moresby,National Capital,-9.4789,147.1494,Papua New Guinea,PG,PNG,primary,317374,1598685395
Porto-Novo,Porto-Novo,Ouémé,6.4833,2.6167,Benin,BJ,BEN,primary,300000,1204172060
Sucre,Sucre,Chuquisaca,-19.0431,-65.2592,Bolivia,BO,BOL,primary,300000,1068823873
San José,San Jose,San José,9.9333,-84.0833,Costa Rica,CR,CRI,primary,288054,1188749877
Ljubljana,Ljubljana,Ljubljana,46.05,14.5167,Slovenia,SI,SVN,primary,286745,1705917455
Sarajevo,Sarajevo,"Bosnia and Herzegovina, Federation of",43.8563,18.4132,Bosnia And Herzegovina,BA,BIH,primary,275524,1070966777
Nassau,Nassau,,25.0667,-77.3333,The Bahamas,BS,BHS,primary,274400,1044318561
Bloemfontein,Bloemfontein,Free State,-29.1,26.2167,South Africa,ZA,ZAF,primary,256185,1710495933
Fort-de-France,Fort-de-France,,14.6104,-61.08,Martinique,MQ,MTQ,primary,253995,1474969110
New Delhi,New Delhi,Delhi,28.6139,77.209,India,IN,IND,primary,249998,1356215164
Gaborone,Gaborone,Gaborone,-24.6569,25.9086,Botswana,BW,BWA,primary,231626,1072756768
Paramaribo,Paramaribo,Paramaribo,5.8667,-55.1667,Suriname,SR,SUR,primary,223757,1740518660
Dili,Dili,Díli,-8.5536,125.5783,Timor-Leste,TL,TLS,primary,222323,1626308942
Male,Male,Maale,4.175,73.5083,Maldives,MV,MDV,primary,133019,1462441685
Georgetown,Georgetown,Demerara-Mahaica,6.7833,-58.1667,Guyana,GY,GUY,primary,200500,1328160906
Gibraltar,Gibraltar,,36.1324,-5.3781,Gibraltar,GI,GIB,primary,187083,1292385245
Saint-Denis,Saint-Denis,,-20.8789,55.4481,Reunion,RE,REU,primary,190047,1638024662
Malabo,Malabo,Bioko Norte,3.7521,8.7737,Equatorial Guinea,GQ,GNQ,primary,187302,1226861333
Podgorica,Podgorica,Podgorica,42.4397,19.2661,Montenegro,ME,MNE,primary,174515,1499454516
Manama,Manama,Al ‘Āşimah,26.225,50.5775,Bahrain,BH,BHR,primary,157474,1048989486
Port Louis,Port Louis,Port Louis,-20.1667,57.5,Mauritius,MU,MUS,primary,149194,1480131261
Willemstad,Willemstad,,12.108,-68.935,Curaçao,CW,CUW,primary,150000,1531000000
Bern,Bern,Bern,46.948,7.4474,Switzerland,CH,CHE,primary,133798,1756374318
Papeete,Papeete,Îles du Vent,-17.5334,-149.5667,French Polynesia,PF,PYF,primary,131695,1258907380
Luxembourg,Luxembourg,Luxembourg,49.6106,6.1328,Luxembourg,LU,LUX,primary,128512,1442262731
Reykjavík,Reykjavik,,64.1475,-21.935,Iceland,IS,ISL,primary,128793,1352327190
Praia,Praia,Praia,14.9177,-23.5092,Cabo Verde,CV,CPV,primary,127832,1132398770
Sri Jayewardenepura Kotte,Sri Jayewardenepura Kotte,Western,6.9,79.9164,Sri Lanka,LK,LKA,primary,115826,1144239330
Bridgetown,Bridgetown,Saint Michael,13.0975,-59.6167,Barbados,BB,BRB,primary,110000,1052274244
Moroni,Moroni,Grande Comore,-11.7036,43.2536,Comoros,KM,COM,primary,111329,1174793581
Thimphu,Thimphu,Thimphu,27.4833,89.6333,Bhutan,BT,BTN,primary,104000,1064010361
Mbabane,Mbabane,Hhohho,-26.3208,31.1617,Swaziland,SZ,SWZ,primary,94874,1748811945
Nouméa,Noumea,Province Sud,-22.2625,166.4443,New Caledonia,NC,NCL,primary,93060,1540958092
Honiara,Honiara,Honiara,-9.4333,159.95,Solomon Islands,SB,SLB,primary,84520,1090737486
Suva,Suva,Rewa,-18.1333,178.4333,Fiji,FJ,FJI,primary,88271,1242615095
Ankara,Ankara,Ankara,39.93,32.85,Turkey,TR,TUR,primary,77168,1792572891
Castries,Castries,Castries,14.0167,-60.9833,Saint Lucia,LC,LCA,primary,70000,1662922505
Cayenne,Cayenne,,4.933,-52.33,French Guiana,GF,GUF,primary,61550,1254304969
São Tomé,Sao Tome,São Tomé,0.3333,6.7333,Sao Tome And Principe,ST,STP,primary,56166,1678301324
Port-Vila,Port-Vila,Shefa,-17.7333,168.3167,Vanuatu,VU,VUT,primary,51437,1548805075
Hamilton,Hamilton,Hamilton,32.2942,-64.7839,Bermuda,BM,BMU,primary,52320,1060000000
Bandar Seri Begawan,Bandar Seri Begawan,Brunei and Muara,4.9167,114.9167,Brunei,BN,BRN,primary,50000,1096465895
Monaco,Monaco,,43.7396,7.4069,Monaco,MC,MCO,primary,36371,1492854256
Gitega,Gitega,Gitega,-3.4283,29.925,Burundi,BI,BDI,primary,41944,1108778000
Port of Spain,Port of Spain,Port of Spain,10.6667,-61.5167,Trinidad And Tobago,TT,TTO,primary,37074,1780670676
Apia,Apia,Tuamasaga,-13.8333,-171.8333,Samoa,WS,WSM,primary,37708,1882489296
Tarawa,Tarawa,,1.3382,173.0176,Kiribati,KI,KIR,primary,28802,1296152641
Oranjestad,Oranjestad,,12.5186,-70.0358,Aruba,AW,ABW,primary,34980,1533513057
Saint Helier,Saint Helier,,49.1858,-2.11,Jersey,JE,JEY,primary,33522,1832490253
Banjul,Banjul,Banjul,13.4531,-16.5775,The Gambia,GM,GMB,primary,31356,1270723713
Mamoudzou,Mamoudzou,,-12.7871,45.275,Mayotte,YT,MYT,primary,32057,1175099654
Majuro,Majuro,Majuro,7.0918,171.3802,Marshall Islands,MH,MHL,primary,30000,1584000000
Douglas,Douglas,,54.15,-4.4819,Isle Of Man,IM,IMN,primary,27938,1833688345
George Town,George Town,,19.2866,-81.3744,Cayman Islands,KY,CYM,primary,27704,1136159124
Victoria,Victoria,English River,-4.6236,55.4544,Seychelles,SC,SYC,primary,26450,1690193579
Kingstown,Kingstown,Saint George,13.1667,-61.2333,Saint Vincent And The Grenadines,VC,VCT,primary,25000,1670376659
Andorra la Vella,Andorra la Vella,Andorra la Vella,42.5,1.5,Andorra,AD,AND,primary,22615,1020828846
Saint John’s,Saint John's,Saint John,17.1211,-61.8447,Antigua And Barbuda,AG,ATG,primary,21926,1028912067
Nuku‘alofa,Nuku`alofa,Tongatapu,-21.1347,-175.2083,Tonga,TO,TON,primary,23221,1776737461
Ashgabat,Ashgabat,Ahal,37.95,58.3833,Turkmenistan,TM,TKM,primary,19426,1795049992
Nuuk,Nuuk,Sermersooq,64.175,-51.7333,Greenland,GL,GRL,primary,18326,1304028354
Belmopan,Belmopan,Cayo,17.25,-88.7675,Belize,BZ,BLZ,primary,17222,1084586375
Roseau,Roseau,Saint George,15.3,-61.3833,Dominica,DM,DMA,primary,16582,1212060440
Basseterre,Basseterre,Saint George Basseterre,17.2983,-62.7342,Saint Kitts And Nevis,KN,KNA,primary,13220,1659198919
Tórshavn,Torshavn,,62,-6.7833,Faroe Islands,FO,FRO,primary,13326,1234904517
Pago Pago,Pago Pago,,-14.274,-170.7046,American Samoa,AS,ASM,primary,12576,1016976740
Valletta,Valletta,Valletta,35.8978,14.5125,Malta,MT,MLT,primary,6444,1470574399
Gaza,Gaza,,31.5069,34.456,Gaza Strip,XG,XGZ,primary,,1916116052
Grand Turk,Grand Turk,,21.4664,-71.136,Turks And Caicos Islands,TC,TCA,primary,5801,1796965313
Palikir,Palikir,Pohnpei,6.9178,158.185,Federated States of Micronesia,FM,FSM,primary,6227,1583008885
Funafuti,Funafuti,Funafuti,-8.5243,179.1942,Tuvalu,TV,TUV,primary,6025,1798251391
Vaduz,Vaduz,Vaduz,47.1397,9.5219,Liechtenstein,LI,LIE,primary,5668,1438317747
Lobamba,Lobamba,Hhohho,-26.4465,31.2064,Swaziland,SZ,SWZ,primary,5800,1748963140
Avarua,Avarua,,-21.207,-159.771,Cook Islands,CK,COK,primary,5445,1184217570
Saint George’s,Saint George's,Saint George,12.0444,-61.7417,Grenada,GD,GRD,primary,4315,1308891766
San Marino,San Marino,San Marino Città,43.932,12.4484,San Marino,SM,SMR,primary,4040,1674741947
Al Quds,Al Quds,,31.7764,35.2269,West Bank,XW,XWB,primary,,1934000006
Capitol Hill,Capitol Hill,,15.2137,145.7546,Northern Mariana Islands,MP,MNP,primary,2500,1580556972
Stanley,Stanley,,-51.7,-57.85,Falkland Islands (Islas Malvinas),FK,FLK,primary,2213,1238780509
Vatican City,Vatican City,,41.9033,12.4534,Vatican City,VA,VAT,primary,825,1336000000
Alofi,Alofi,,-19.056,-169.921,Niue,NU,NIU,primary,1611,1570882835
Basse-Terre,Basse-Terre,,16.0104,-61.7055,Guadeloupe,GP,GLP,primary,307,1312938008
Hagåtña,Hagta,,13.4745,144.7504,Guam,GU,GUM,primary,1051,1316937540
Marigot,Marigot,,18.0706,-63.0847,Saint Martin,MF,MAF,primary,,1663133172
Jamestown,Jamestown,Saint Helena,-15.9251,-5.7179,"Saint Helena, Ascension, And Tristan Da Cunha",SH,SHN,primary,714,1654761576
Brades,Brades,Saint Peter,16.7928,-62.2106,Montserrat,MS,MSR,primary,391,1500971198
Philipsburg,Philipsburg,,18.0256,-63.0492,Sint Maarten,SX,SXM,primary,,1534859858
Yaren,Yaren,Yaren,-0.5477,166.9209,Nauru,NR,NRU,primary,,1520790128
Pristina,Pristina,Prishtinë,42.6633,21.1622,Kosovo,XK,XKS,primary,,1901760068
Gustavia,Gustavia,,17.8958,-62.8508,Saint Barthelemy,BL,BLM,primary,,1652681565
Road Town,Road Town,,18.4167,-64.6167,British Virgin Islands,VG,VGB,primary,,1092732412
Ngerulmud,Ngerulmud,Melekeok,7.5006,134.6242,Palau,PW,PLW,primary,271,1585525081
Saint-Pierre,Saint-Pierre,,46.7811,-56.1764,Saint Pierre And Miquelon,PM,SPM,primary,,1666340272
The Valley,The Valley,,18.2167,-63.05,Anguilla,AI,AIA,primary,,1660698387
Mata-Utu,Mata-Utu,Uvea,-13.2825,-176.1736,Wallis And Futuna,WF,WLF,primary,,1876784844
Kingston,Kingston,,-29.0569,167.9617,Norfolk Island,NF,NFK,primary,,1574121434
Longyearbyen,Longyearbyen,,78.2167,15.6333,Svalbard,XR,XSV,primary,,1930654114
Tifariti,Tifariti,Laâyoune-Sakia El Hamra,26.0928,-10.6089,Morocco,MA,MAR,primary,,1504999990
Adamstown,Adamstown,,-25.0667,-130.0833,Pitcairn Islands,PN,PCN,primary,,1612000000
Flying Fish Cove,Flying Fish Cove,,-10.4167,105.7167,Christmas Island,CX,CXR,primary,,1162889600
King Edward Point,King Edward Point,,-54.2833,-36.5,South Georgia And South Sandwich Islands,GS,SGS,primary,,1239048838
Bareilly,Bareilly,Uttar Pradesh,28.364,79.415,India,IN,IND,,1000000,1356698199
Quảng Hà,Quang Ha,Quảng Nam,16.06,108.25,Vietnam,VN,VNM,,1000000,1704966442
Xingcheng,Xingcheng,Guangdong,24.1681,115.6669,China,CN,CHN,minor,993000,1156913008
Dongtai,Dongtai,Jiangsu,32.8534,120.3037,China,CN,CHN,minor,990306,1156536785
Al Manşūrah,Al Mansurah,Ad Daqahlīyah,31.05,31.3833,Egypt,EG,EGY,admin,960423,1818255319
Yingcheng,Yingcheng,Guangdong,24.1878,113.4042,China,CN,CHN,minor,986400,1156012356
Chiba,Chiba,Chiba,35.6073,140.1064,Japan,JP,JPN,admin,981738,1392107144
Pekanbaru,Pekanbaru,Riau,0.5333,101.45,Indonesia,ID,IDN,admin,983356,1360422679
Luocheng,Luocheng,Guangdong,22.7645,111.5745,China,CN,CHN,minor,984100,1156138895
Dnipro,Dnipro,Dnipropetrovs’ka Oblast’,48.4675,35.04,Ukraine,UA,UKR,admin,980948,1804152933
Danyang,Danyang,Jiangsu,31.9948,119.575,China,CN,CHN,,980662,1156578273
Natal,Natal,Amazonas,-6.9838,-60.2699,Brazil,BR,BRA,,980588,1076336975
Nada,Nada,Hainan,19.5,109.5833,China,CN,CHN,minor,977700,1156911678
Zamboanga City,Zamboanga City,Zamboanga,6.9167,122.0833,Philippines,PH,PHL,admin,977234,1608189351
Kirkuk,Kirkuk,Kirkūk,35.4667,44.4,Iraq,IQ,IRQ,admin,975000,1368344172
Naples,Naples,Campania,40.8333,14.25,Italy,IT,ITA,admin,966144,1380646673
Wuchuan,Wuchuan,Guangdong,21.4283,110.7749,China,CN,CHN,,972400,1156198103
Huilong,Huilong,Jiangsu,31.8131,121.6574,China,CN,CHN,minor,972525,1156485081
Oklahoma City,Oklahoma City,Oklahoma,35.4676,-97.5136,United States,US,USA,admin,972943,1840020428
Morelia,Morelia,Michoacán de Ocampo,19.7683,-101.1894,Mexico,MX,MEX,,962555,1484669072
Cebu City,Cebu City,Cebu,10.293,123.902,Philippines,PH,PHL,admin,964169,1608136151
Shaoxing,Shaoxing,Zhejiang,30,120.5833,China,CN,CHN,minor,961200,1156893449
Coimbatore,Coimbatore,Tamil Nādu,11,76.9667,India,IN,IND,,959823,1356999503
Santo Domingo Este,Santo Domingo Este,Ozama,18.4855,-69.8734,Dominican Republic,DO,DOM,admin,948855,1214664832
Setagaya,Setagaya,Tōkyō,35.6464,139.6533,Japan,JP,JPN,,940509,1392792380
Sŏngnam,Songnam,Gyeonggi,37.4386,127.1378,South Korea,KR,KOR,,948757,1410622472
Taishan,Taishan,Guangdong,22.2486,112.785,China,CN,CHN,,953900,1156105450
Fangchenggang,Fangchenggang,Guangxi,21.6,108.3,China,CN,CHN,minor,953300,1156532454
Solāpur,Solapur,Mahārāshtra,17.6715,75.9104,India,IN,IND,,951558,1356314385
Tangier,Tangier,Tanger-Tétouan-Al Hoceïma,35.7767,-5.8039,Morocco,MA,MAR,admin,947952,1504861504
Anqiu,Anqiu,Shandong,36.3619,119.1072,China,CN,CHN,,947723,1156592047
Feicheng,Feicheng,Shandong,36.186,116.772,China,CN,CHN,,946627,1156303834
Kermānshāh,Kermanshah,Kermānshāh,34.3167,47.0686,Iran,IR,IRN,admin,945651,1364535690
Kitakyūshū,Kitakyushu,Fukuoka,33.8833,130.8833,Japan,JP,JPN,,935084,1392003140
Meishan,Meishan,Henan,34.1736,112.839,China,CN,CHN,minor,936000,1156023073
Khartoum North,Khartoum North,Khartoum,15.6333,32.6333,Sudan,SD,SDN,,936349,1729318628
Kisangani,Kisangani,Tshopo,0.5153,25.1911,Congo (Kinshasa),CD,COD,admin,935977,1180478201
Aguascalientes,Aguascalientes,Aguascalientes,21.876,-102.296,Mexico,MX,MEX,admin,934424,1484666646
Marrakech,Marrakech,Marrakech-Safi,31.6295,-7.9811,Morocco,MA,MAR,admin,928850,1504172585
Donetsk,Donetsk,Donets’ka Oblast’,48.0089,37.8042,Ukraine,UA,UKR,admin,929063,1804963805
Trujillo,Trujillo,La Libertad,-8.1119,-79.0289,Peru,PE,PER,admin,919899,1604613706
Taihe,Taihe,Sichuan,30.8706,105.3784,China,CN,CHN,minor,924531,1156281983
Bridgeport,Bridgeport,Connecticut,41.1918,-73.1953,United States,US,USA,,924449,1840004836
Trichinopoly,Trichinopoly,Tamil Nādu,10.8269,78.6928,India,IN,IND,,916857,1356884472
Xin’an,Xin'an,Jiangsu,34.3662,118.3369,China,CN,CHN,,920628,1156236053
Taihecun,Taihecun,Heilongjiang,45.768,131.0063,China,CN,CHN,minor,920471,1156875484
Naucalpan de Juárez,Naucalpan de Juarez,México,19.4753,-99.2378,Mexico,MX,MEX,minor,913681,1484850125
Owerri,Owerri,Imo,5.4833,7.0333,Nigeria,NG,NGA,admin,908109,1566679132
Padang,Padang,Sumatera Barat,-0.9556,100.3606,Indonesia,ID,IDN,admin,914970,1360900986
Qingzhou,Qingzhou,Shandong,36.6967,118.4797,China,CN,CHN,,914047,1156874864
Buffalo,Buffalo,New York,42.9016,-78.8487,United States,US,USA,,914341,1840000386
Lichuan,Lichuan,Hubei,30.2965,108.9378,China,CN,CHN,,913700,1156302762
Daye,Daye,Hubei,30.1003,114.9699,China,CN,CHN,,909724,1156255811
Fort Worth,Fort Worth,Texas,32.7811,-97.3473,United States,US,USA,,909585,1840020696
Hengzhou,Hengzhou,Guangxi,22.6896,109.2674,China,CN,CHN,minor,908400,1156041202
Campo Grande,Campo Grande,Mato Grosso do Sul,-20.4686,-54.6222,Brazil,BR,BRA,admin,906092,1076660445
Zhuanghe,Zhuanghe,Liaoning,39.6896,122.9664,China,CN,CHN,,905852,1156410076
Hartford,Hartford,Connecticut,41.7661,-72.6834,United States,US,USA,admin,905152,1840004773
Bobo-Dioulasso,Bobo-Dioulasso,Hauts-Bassins,11.1833,-4.2833,Burkina Faso,BF,BFA,admin,903887,1854348796
Ad Dammām,Ad Dammam,Ash Sharqīyah,26.4333,50.1,Saudi Arabia,SA,SAU,admin,903312,1682452296
Lhasa,Lhasa,Tibet,29.6458,91.1408,China,CN,CHN,admin,902500,1156369972
Jiaozhou,Jiaozhou,Shandong,36.2481,119.9625,China,CN,CHN,,900500,1156752602
Taguig City,Taguig City,Taguig,14.5167,121.05,Philippines,PH,PHL,admin,886722,1608766695
Mérida,Merida,Yucatán,20.97,-89.62,Mexico,MX,MEX,admin,892363,1484396779
Yangchun,Yangchun,Guangdong,22.1717,111.7846,China,CN,CHN,,891800,1156787307
Bucheon,Bucheon,Gyeonggi,37.4989,126.7831,South Korea,KR,KOR,minor,867678,1410428222
Dengtalu,Dengtalu,Henan,36.0819,114.3481,China,CN,CHN,minor,887000,1156202014
Antipolo,Antipolo,Rizal,14.5842,121.1763,Philippines,PH,PHL,admin,887399,1608824345
Hubli,Hubli,Karnātaka,15.3619,75.1231,India,IN,IND,,890000,1356102365
Abeokuta,Abeokuta,Ogun,7.15,3.35,Nigeria,NG,NGA,admin,888924,1566979497
Cancún,Cancun,Quintana Roo,21.1606,-86.8475,Mexico,MX,MEX,minor,888797,1484010310
Tucson,Tucson,Arizona,32.1545,-110.8782,United States,US,USA,,888486,1840022101
Krasnodar,Krasnodar,Krasnodarskiy Kray,45.0333,38.9833,Russia,RU,RUS,admin,881476,1643438227
Natal,Natal,Rio Grande do Norte,-5.795,-35.2089,Brazil,BR,BRA,admin,877662,1076697777
Chihuahua,Chihuahua,Chihuahua,28.6353,-106.0889,Mexico,MX,MEX,admin,878062,1484335603
Klang,Klang,Selangor,3.0333,101.45,Malaysia,MY,MYS,,878000,1458509635
Turin,Turin,Piedmont,45.0667,7.7,Italy,IT,ITA,admin,870952,1380244627
Ar Ramādī,Ar Ramadi,Al Anbār,33.4258,43.2992,Iraq,IQ,IRQ,admin,874543,1368838855
Laiyang,Laiyang,Shandong,36.9758,120.7136,China,CN,CHN,,874127,1156207330
Sale,Sale,Rabat-Salé-Kénitra,34.05,-6.8167,Morocco,MA,MAR,,850403,1504989034
Jalandhar,Jalandhar,Punjab,31.3256,75.5792,India,IN,IND,,873725,1356494816
Kaifeng Chengguanzhen,Kaifeng Chengguanzhen,Henan,34.8519,114.3481,China,CN,CHN,minor,872000,1156686574
Ikeja,Ikeja,Lagos,6.6186,3.3426,Nigeria,NG,NGA,admin,861300,1566486388
Malang,Malang,Jawa Timur,-7.98,112.62,Indonesia,ID,IDN,,866118,1360141408
Marseille,Marseille,Provence-Alpes-Côte d’Azur,43.2964,5.37,France,FR,FRA,admin,868277,1250774071
Saltillo,Saltillo,Coahuila de Zaragoza,25.4333,-101,Mexico,MX,MEX,admin,864431,1484107245
Gaomi,Gaomi,Shandong,36.3833,119.75,China,CN,CHN,,868715,1156673331
Ipoh,Ipoh,Perak,4.6,101.07,Malaysia,MY,MYS,admin,866772,1458423505
Hai’an,Hai'an,Jiangsu,32.532,120.4604,China,CN,CHN,minor,866337,1156332302
Oran,Oran,Oran,35.6969,-0.6331,Algeria,DZ,DZA,admin,852000,1012126319
Hermosillo,Hermosillo,Sonora,29.0989,-110.9542,Mexico,MX,MEX,admin,855563,1484015319
Weichanglu,Weichanglu,Shandong,37.1792,119.9333,China,CN,CHN,minor,859424,1156194600
Shache,Shache,Xinjiang,38.4261,77.25,China,CN,CHN,,851374,1156278934
Leping,Leping,Jiangxi,28.9632,117.1203,China,CN,CHN,minor,852800,1156705082
Hailun,Hailun,Heilongjiang,47.4585,126.9632,China,CN,CHN,minor,850000,1156804488
Macheng,Macheng,Hubei,31.1817,115.0189,China,CN,CHN,,849090,1156949639
Akure,Akure,Ondo,7.25,5.195,Nigeria,NG,NGA,admin,847903,1566568277
Ilorin,Ilorin,Kwara,8.5,4.55,Nigeria,NG,NGA,admin,847582,1566480168
Teresina,Teresina,Piauí,-5.0949,-42.8042,Brazil,BR,BRA,admin,847430,1076727667
Yuci,Yuci,Shanxi,37.6823,112.7281,China,CN,CHN,,840000,1156177817
Omaha,Omaha,Nebraska,41.2627,-96.0522,United States,US,USA,,847819,1840009315
Saratov,Saratov,Saratovskaya Oblast’,51.5333,46,Russia,RU,RUS,admin,845300,1643556540
Erbil,Erbil,Arbīl,36.1911,44.0094,Iraq,IQ,IRQ,admin,846000,1368578192
Iguaçu,Iguacu,Rio de Janeiro,-22.74,-43.47,Brazil,BR,BRA,,844583,1076339714
El Paso,El Paso,Texas,31.8479,-106.4309,United States,US,USA,,843386,1840023252
Pasig City,Pasig City,Pasig,14.575,121.0833,Philippines,PH,PHL,admin,803159,1608278212
Denpasar,Denpasar,Bali,-8.6667,115.2167,Indonesia,ID,IDN,admin,834881,1360848527
Dehui,Dehui,Jilin,44.5323,125.6965,China,CN,CHN,,839786,1156898134
Bhubaneshwar,Bhubaneshwar,Odisha,20.2644,85.8281,India,IN,IND,admin,837737,1356140143
Tongchuan,Tongchuan,Shaanxi,34.9057,108.9422,China,CN,CHN,minor,834437,1156849608
Cheongju,Cheongju,Chungbuk,36.6372,127.4897,South Korea,KR,KOR,admin,833276,1410964361
Warri,Warri,Delta,5.5167,5.75,Nigeria,NG,NGA,minor,830106,1566325734
Pointe-Noire,Pointe-Noire,Pointe-Noire,-4.7889,11.8653,Congo (Brazzaville),CG,COG,admin,829134,1178411563
Sakai,Sakai,Ōsaka,34.5667,135.4833,Japan,JP,JPN,,823523,1392003291
Rongjiawan,Rongjiawan,Hunan,29.1409,113.1087,China,CN,CHN,minor,826000,1156795164
Butterworth,Butterworth,Pulau Pinang,5.3992,100.3639,Malaysia,MY,MYS,,821652,1458469233
Renqiu,Renqiu,Hebei,38.7094,116.1008,China,CN,CHN,,822455,1156943939
Honolulu,Honolulu,Hawaii,21.3294,-157.846,United States,US,USA,admin,820987,1840013305
Xindi,Xindi,Hubei,29.8182,113.4653,China,CN,CHN,,819446,1156263165
Wu’an,Wu'an,Hebei,36.6941,114.1847,China,CN,CHN,,819000,1156729960
São Bernardo do Campo,Sao Bernardo do Campo,São Paulo,-23.6939,-46.565,Brazil,BR,BRA,,816925,1076793227
Gaoyou,Gaoyou,Jiangsu,32.7847,119.4432,China,CN,CHN,minor,811800,1156235854
Culiacán,Culiacan,Sinaloa,24.8069,-107.3939,Mexico,MX,MEX,admin,808416,1484516810
Hejian,Hejian,Hebei,38.4451,116.0897,China,CN,CHN,,810306,1156405731
Yiyang,Yiyang,Hunan,26.4103,112.3913,China,CN,CHN,minor,810447,1156142520
Puxi,Puxi,Henan,35.2125,114.735,China,CN,CHN,minor,809535,1156046618
Zijinglu,Zijinglu,Henan,34.7513,112.9854,China,CN,CHN,minor,807857,1156086381
João Pessoa,Joao Pessoa,Paraíba,-7.12,-34.88,Brazil,BR,BRA,admin,801718,1076922014
McAllen,McAllen,Texas,26.2273,-98.2471,United States,US,USA,,804114,1840021024
Querétaro,Queretaro,Querétaro,20.5875,-100.3928,Mexico,MX,MEX,admin,801940,1484604775
Abaeté,Abaete,Minas Gerais,-19.1583,-45.4522,Brazil,BR,BRA,,800000,1076413528
Palermo,Palermo,Huila,2.8883,-75.4339,Colombia,CO,COL,minor,800000,1170614290
Qingping,Qingping,Henan,34.538,113.3796,China,CN,CHN,minor,797200,1156033855
Valencia,Valencia,Valencia,39.47,-0.3764,Spain,ES,ESP,admin,789744,1724981666
Niigata,Niigata,Niigata,37.9161,139.0364,Japan,JP,JPN,admin,790646,1392913753
Leeds,Leeds,Leeds,53.7997,-1.5492,United Kingdom,GB,GBR,,789194,1826343963
Morādābād,Moradabad,Uttar Pradesh,28.8437,78.7548,India,IN,IND,,787000,1356269375
Hamamatsu,Hamamatsu,Shizuoka,34.7167,137.7333,Japan,JP,JPN,,788211,1392174500
Xiangxiang,Xiangxiang,Hunan,27.7389,112.5223,China,CN,CHN,,787216,1156524101
Chaohucun,Chaohucun,Anhui,31.6783,117.7353,China,CN,CHN,,782000,1156671495
Fuyang,Fuyang,Zhejiang,30.0553,119.95,China,CN,CHN,minor,771000,1156340393
Homs,Homs,Ḩimş,34.7333,36.7167,Syria,SY,SYR,admin,775404,1760013934
Lubango,Lubango,Huíla,-14.9167,13.5,Angola,AO,AGO,admin,776249,1024669127
San Luis Potosí,San Luis Potosi,San Luis Potosí,22.1511,-100.9761,Mexico,MX,MEX,admin,772828,1484583620
Cencheng,Cencheng,Guangxi,22.9297,111.0186,China,CN,CHN,minor,772113,1156000460
Dali,Dali,Yunnan,25.7003,100.1564,China,CN,CHN,,771128,1156840276
Hamhŭng,Hamhung,Hamnam,39.9167,127.5333,North Korea,KP,PRK,admin,768551,1408482040
Kraków,Krakow,Małopolskie,50.0614,19.9372,Poland,PL,POL,admin,766739,1616172264
Hempstead,Hempstead,New York,40.6629,-73.6089,United States,US,USA,,767417,1840005293
Frankfurt,Frankfurt,Hesse,50.1136,8.6797,Germany,DE,DEU,minor,764104,1276054552
Al ‘Ayn,Al `Ayn,Abū Z̧aby,24.2075,55.7447,United Arab Emirates,AE,ARE,,766936,1784674685
Songzi,Songzi,Hubei,30.1772,111.7732,China,CN,CHN,,765911,1156837705
Laixi,Laixi,Shandong,36.8667,120.5333,China,CN,CHN,,762900,1156973102
Bahawalpur,Bahawalpur,Punjab,29.3956,71.6722,Pakistan,PK,PAK,minor,762111,1586038700
Zhongba,Zhongba,Sichuan,31.7761,104.7406,China,CN,CHN,minor,762140,1156515985
Kaduna,Kaduna,Kaduna,10.5105,7.4165,Nigeria,NG,NGA,admin,760084,1566368729
Qingnian,Qingnian,Shandong,36.8494,115.7061,China,CN,CHN,minor,760781,1156689964
Albuquerque,Albuquerque,New Mexico,35.1053,-106.6464,United States,US,USA,,761195,1840019176
Xinhualu,Xinhualu,Henan,34.3962,113.7249,China,CN,CHN,minor,758079,1156544851
Nerima,Nerima,Tōkyō,35.75,139.6167,Japan,JP,JPN,,742463,1392093402
Guangshui,Guangshui,Hubei,31.6189,113.8229,China,CN,CHN,,755910,1156267419
Tlajomulco de Zúñiga,Tlajomulco de Zuniga,Jalisco,20.4736,-103.4431,Mexico,MX,MEX,minor,727750,1484017493
Samarinda,Samarinda,Kalimantan Timur,-0.5022,117.1536,Indonesia,ID,IDN,admin,753370,1360684979
Pietermaritzburg,Pietermaritzburg,KwaZulu-Natal,-29.6009,30.3796,South Africa,ZA,ZAF,admin,750845,1710690280
Changhua,Changhua,Changhua,24.0667,120.5333,Taiwan,TW,TWN,admin,750000,1158439005
Kolhāpur,Kolhapur,Mahārāshtra,16.7,74.2333,India,IN,IND,,750000,1356110593
Sizhan,Sizhan,Ningxia,39.0099,106.3694,China,CN,CHN,,751389,1156450911
Ciudad Guayana,Ciudad Guayana,Bolívar,8.3596,-62.6517,Venezuela,VE,VEN,minor,751331,1862889027
Cúcuta,Cucuta,Norte de Santander,7.9075,-72.5047,Colombia,CO,COL,admin,750000,1170743755
Licheng,Licheng,Jiangsu,31.4174,119.4786,China,CN,CHN,minor,749522,1156933354
Ōta-ku,Ota-ku,Tōkyō,35.5614,139.7161,Japan,JP,JPN,,737187,1392003511
Thiruvananthapuram,Thiruvananthapuram,Kerala,8.5,76.8997,India,IN,IND,admin,743691,1356024354
Tyumen,Tyumen,Tyumenskaya Oblast’,57.15,65.5333,Russia,RU,RUS,admin,744554,1643040435
Nampula,Nampula,Nampula,-15.1167,39.2667,Mozambique,MZ,MOZ,admin,743000,1508958445
Zaporizhzhia,Zaporizhzhia,Zaporiz’ka Oblast’,47.8378,35.1383,Ukraine,UA,UKR,admin,741717,1804644752
Chengguan,Chengguan,Henan,35.5256,113.6976,China,CN,CHN,minor,740435,1156866870
Kumamoto,Kumamoto,Kumamoto,32.8031,130.7078,Japan,JP,JPN,admin,738385,1392106283
Nehe,Nehe,Heilongjiang,48.48,124.8738,China,CN,CHN,,740000,1156609562
Birmingham,Birmingham,Alabama,33.5277,-86.7987,United States,US,USA,,739573,1840006507
Zunhua,Zunhua,Hebei,40.1881,117.9593,China,CN,CHN,minor,737011,1156756935
Valenzuela,Valenzuela,Valenzuela,14.7,120.9833,Philippines,PH,PHL,admin,714978,1608492120
Orūmīyeh,Orumiyeh,Āz̄arbāyjān-e Gharbī,37.5486,45.0675,Iran,IR,IRN,admin,736224,1364158221
Wugang,Wugang,Hunan,26.7345,110.6293,China,CN,CHN,,734870,1156089788
Osogbo,Osogbo,Osun,7.7597,4.5761,Nigeria,NG,NGA,admin,731000,1566395088
Shuangqiao,Shuangqiao,Henan,35.0833,112.5833,China,CN,CHN,minor,733000,1156968311
Comodoro Rivadavia,Comodoro Rivadavia,Chubut,-45.8667,-67.5,Argentina,AR,ARG,minor,730266,1032042035
Cagayan de Oro,Cagayan de Oro,Cagayan de Oro,8.4833,124.65,Philippines,PH,PHL,admin,728402,1608831546
Langzhong,Langzhong,Sichuan,31.5504,105.9938,China,CN,CHN,minor,728935,1156930148
Qian’an,Qian'an,Hebei,40.0059,118.6973,China,CN,CHN,,728160,1156315498
Lviv,Lviv,L’vivs’ka Oblast’,49.8419,24.0315,Ukraine,UA,UKR,admin,724314,1804939658
Zouping,Zouping,Shandong,36.8625,117.7424,China,CN,CHN,,726722,1156817518
An Najaf,An Najaf,An Najaf,32.029,44.3396,Iraq,IQ,IRQ,admin,724700,1368003357
Sagamihara,Sagamihara,Kanagawa,35.5667,139.3667,Japan,JP,JPN,,722973,1392967248
Sarasota,Sarasota,Florida,27.3386,-82.5431,United States,US,USA,,722243,1840015988
Mississauga,Mississauga,Ontario,43.6,-79.65,Canada,CA,CAN,,721599,1124112672
Okayama,Okayama,Okayama,34.65,133.9167,Japan,JP,JPN,admin,720043,1392954750
Anlu,Anlu,Hubei,31.2575,113.6783,China,CN,CHN,minor,720000,1156406202
Dayton,Dayton,Ohio,39.7797,-84.1998,United States,US,USA,,718353,1840034249
Changsha,Changsha,Guangdong,22.3762,112.6877,China,CN,CHN,minor,717700,1156011120
Torreón,Torreon,Coahuila de Zaragoza,25.5394,-103.4486,Mexico,MX,MEX,minor,716672,1484215762
Shihezi,Shihezi,Xinjiang,44.3,86.0333,China,CN,CHN,minor,717000,1156232270
George Town,George Town,Pulau Pinang,5.4145,100.3292,Malaysia,MY,MYS,admin,708127,1458236750
Enugu,Enugu,Enugu,6.4403,7.4942,Nigeria,NG,NGA,admin,715774,1566212729
Soledad,Soledad,Atlántico,10.92,-74.77,Colombia,CO,COL,minor,698852,1170765625
Jaboatão,Jaboatao,Pernambuco,-8.1803,-35.0014,Brazil,BR,BRA,,702621,1076000699
Yanggok,Yanggok,Gyeonggi,37.6367,127.2142,South Korea,KR,KOR,,713321,1410188674
Yatou,Yatou,Shandong,37.1653,122.4867,China,CN,CHN,minor,714211,1156009046
Santo André,Santo Andre,São Paulo,-23.6572,-46.5333,Brazil,BR,BRA,,710210,1076625886
Xichang,Xichang,Sichuan,27.8983,102.2706,China,CN,CHN,minor,712434,1156116456
Bhiwandi,Bhiwandi,Mahārāshtra,19.3,73.0667,India,IN,IND,,709665,1356763571
City of Parañaque,City of Paranaque,Parañaque,14.4667,121.0167,Philippines,PH,PHL,admin,689992,1608379532
Dasmariñas,Dasmarinas,Cavite,14.3294,120.9367,Philippines,PH,PHL,,703141,1608418544
Chengxiang,Chengxiang,Jiangsu,31.4515,121.1043,China,CN,CHN,minor,709500,1156254788
Sahāranpur,Saharanpur,Uttar Pradesh,29.964,77.546,India,IN,IND,,705478,1356139858
Warangal,Warangal,Telangana,17.9756,79.6011,India,IN,IND,,704570,1356851618
Edogawa,Edogawa,Chiba,35.6924,139.8757,Japan,JP,JPN,,690457,1392135698
Osasco,Osasco,São Paulo,-23.5328,-46.7919,Brazil,BR,BRA,,694844,1076786452
Dashiqiao,Dashiqiao,Liaoning,40.6328,122.5021,China,CN,CHN,minor,704891,1156141962
Latakia,Latakia,Al Lādhiqīyah,35.5236,35.7917,Syria,SY,SYR,admin,700000,1760555544
Rochester,Rochester,New York,43.168,-77.6162,United States,US,USA,,703952,1840000373
Fresno,Fresno,California,36.7831,-119.7941,United States,US,USA,,703498,1840020319
Banjarmasin,Banjarmasin,Kalimantan Selatan,-3.319,114.5921,Indonesia,ID,IDN,admin,692793,1360685223
Salem,Salem,Tamil Nādu,11.65,78.1667,India,IN,IND,,693236,1356567087
General Santos,General Santos,General Santos,6.1167,125.1667,Philippines,PH,PHL,admin,697315,1608171585
Ḩamāh,Hamah,Ḩamāh,35.1333,36.75,Syria,SY,SYR,admin,696863,1760197502
Bacoor,Bacoor,Cavite,14.4624,120.9645,Philippines,PH,PHL,,664625,1608869358
Shishi,Shishi,Fujian,24.7355,118.6434,China,CN,CHN,minor,693000,1156077046
Guadalupe,Guadalupe,Nuevo León,25.6775,-100.2597,Mexico,MX,MEX,minor,691931,1484002410
Adachi,Adachi,Tōkyō,35.7833,139.8,Japan,JP,JPN,,682326,1392464568
Qianxi,Qianxi,Guizhou,27.0284,106.0327,China,CN,CHN,,695947,1156919716
Tolyatti,Tolyatti,Samarskaya Oblast’,53.5167,49.4167,Russia,RU,RUS,,693072,1643256295
Macau,Macau,,22.203,113.545,Macau,MO,MAC,,568700,1446227359
Bauchi,Bauchi,Bauchi,10.3158,9.8442,Nigeria,NG,NGA,admin,693700,1566483284
Hamilton,Hamilton,Ontario,43.2567,-79.8692,Canada,CA,CAN,,693645,1124567288
Łódź,Lodz,Łódzkie,51.7769,19.4547,Poland,PL,POL,admin,690422,1616832750
Miluo Chengguanzhen,Miluo Chengguanzhen,Hunan,28.8049,113.0745,China,CN,CHN,minor,692080,1156690651
Gaizhou,Gaizhou,Liaoning,40.4019,122.3499,China,CN,CHN,minor,691595,1156145272
Mālegaon,Malegaon,Mahārāshtra,20.55,74.55,India,IN,IND,,690844,1356113556
Karbalā’,Karbala',Karbalā’,32.6167,44.0333,Iraq,IQ,IRQ,admin,690100,1368597794
Leling,Leling,Shandong,37.7333,117.2167,China,CN,CHN,minor,689867,1156044041
São José dos Campos,Sao Jose dos Campos,São Paulo,-23.1789,-45.8869,Brazil,BR,BRA,,688597,1076783887
Sevilla,Sevilla,Andalusia,37.39,-5.99,Spain,ES,ESP,admin,684234,1724991838
Jianshe,Jianshe,Henan,34.2189,113.7693,China,CN,CHN,minor,687130,1156444449
Shizuoka,Shizuoka,Shizuoka,34.9756,138.3825,Japan,JP,JPN,admin,685589,1392235505
Jingcheng,Jingcheng,Jiangsu,32.0058,120.2547,China,CN,CHN,minor,684360,1156033208
Kochi,Kochi,Kerala,9.9667,76.2833,India,IN,IND,,677381,1356707865
Allentown,Allentown,Pennsylvania,40.5961,-75.4756,United States,US,USA,,683794,1840001044
Tasikmalaya,Tasikmalaya,Jawa Barat,-7.3333,108.2,Indonesia,ID,IDN,,678027,1360027771
Rasht,Rasht,Gīlān,37.2833,49.6,Iran,IR,IRN,admin,679995,1364630382
Xinmin,Xinmin,Liaoning,41.9952,122.8224,China,CN,CHN,,680000,1156368551
Zhongshu,Zhongshu,Guizhou,27.8116,106.4133,China,CN,CHN,,679624,1156658422
Xigazê,Xigaze,Tibet,29.2649,88.8799,China,CN,CHN,minor,679771,1156107208
Gorakhpur,Gorakhpur,Uttar Pradesh,26.7611,83.3667,India,IN,IND,,673446,1356190221
As Sulaymānīyah,As Sulaymaniyah,As Sulaymānīyah,35.55,45.4333,Iraq,IQ,IRQ,admin,676500,1368735317
Zaragoza,Zaragoza,Aragon,41.65,-0.8833,Spain,ES,ESP,admin,675301,1724907391
Acapulco de Juárez,Acapulco de Juarez,Guerrero,16.8636,-99.8825,Mexico,MX,MEX,minor,673478,1484463183
Bahār,Bahar,Hamadān,34.9069,48.4414,Iran,IR,IRN,minor,673405,1364891653
Palermo,Palermo,Sicilia,38.1111,13.3517,Italy,IT,ITA,admin,668405,1380428434
Guankou,Guankou,Sichuan,30.9933,103.624,China,CN,CHN,,671200,1156503907
Tulsa,Tulsa,Oklahoma,36.1284,-95.9042,United States,US,USA,,671033,1840021672
Tlaquepaque,Tlaquepaque,Jalisco,20.6167,-103.3167,Mexico,MX,MEX,minor,664193,1484087945
Mazatlán,Mazatlan,Sinaloa,23.2167,-106.4167,Mexico,MX,MEX,minor,658354,1484841466
Songyang,Songyang,Henan,34.4603,113.028,China,CN,CHN,minor,668592,1156143149
Cape Coral,Cape Coral,Florida,26.6446,-81.9956,United States,US,USA,,668382,1840015130
Ch’ŏngjin,Ch'ongjin,Hambuk,41.8,129.7831,North Korea,KP,PRK,minor,667929,1408498177
Puyang Chengguanzhen,Puyang Chengguanzhen,Henan,35.7004,114.98,China,CN,CHN,minor,666322,1156103317
Qionghu,Qionghu,Hunan,28.8417,112.3595,China,CN,CHN,minor,667104,1156678111
Ribeirão Prêto,Ribeirao Preto,São Paulo,-21.1783,-47.8067,Brazil,BR,BRA,,666323,1076524478
Zhaodong,Zhaodong,Heilongjiang,46.0635,125.9773,China,CN,CHN,minor,666532,1156601489
Huambo,Huambo,Huambo,-12.7667,15.7333,Angola,AO,AGO,admin,665564,1024079828
Wenchang,Wenchang,Anhui,31.054,116.9507,China,CN,CHN,minor,664455,1156574542
Shulan,Shulan,Jilin,44.4079,126.9429,China,CN,CHN,,663403,1156989733
Tlalnepantla,Tlalnepantla,México,19.5367,-99.1947,Mexico,MX,MEX,minor,653410,1484861603
Catia La Mar,Catia La Mar,Vargas,10.6038,-67.0303,Venezuela,VE,VEN,minor,661897,1862657837
Sargodha,Sargodha,Punjab,32.0836,72.6711,Pakistan,PK,PAK,minor,659862,1586696588
Al Hufūf,Al Hufuf,Ash Sharqīyah,25.3608,49.5997,Saudi Arabia,SA,SAU,,660788,1682958157
Durango,Durango,Durango,24.0167,-104.6667,Mexico,MX,MEX,admin,654876,1484854616
Jalingo,Jalingo,Taraba,8.9195,11.3264,Nigeria,NG,NGA,admin,660213,1566732241
Bouaké,Bouake,Vallée du Bandama,7.6833,-5.0331,Côte d'Ivoire,CI,CIV,admin,659233,1384983838
Sialkot City,Sialkot City,Punjab,32.5,74.5333,Pakistan,PK,PAK,minor,655852,1586141444
San Jose del Monte,San Jose del Monte,Bulacan,14.8139,121.0453,Philippines,PH,PHL,,651813,1608850554
Ansan,Ansan,Gyeonggi,37.3236,126.8219,South Korea,KR,KOR,,652800,1410585171
Lingbao Chengguanzhen,Lingbao Chengguanzhen,Henan,34.5221,110.8786,China,CN,CHN,minor,656571,1156837145
Hwasu-dong,Hwasu-dong,Gyeonggi,37.2,126.7667,South Korea,KR,KOR,,655350,1410037247
Huế,Hue,Thừa Thiên-Huế,16.4637,107.5908,Vietnam,VN,VNM,admin,652572,1704016023
Shimoga,Shimoga,Karnātaka,13.9167,75.5667,India,IN,IND,,654055,1356016156
Bulawayo,Bulawayo,Bulawayo,-20.1667,28.5667,Zimbabwe,ZW,ZWE,admin,653337,1716032632
Xiping,Xiping,Yunnan,25.6005,103.8166,China,CN,CHN,minor,652604,1156207794
Sanhe,Sanhe,Hebei,39.9808,117.0701,China,CN,CHN,,652042,1156476348
Guntūr,Guntur,Andhra Pradesh,16.3,80.45,India,IN,IND,,647508,1356374905
Concord,Concord,California,37.9722,-122.0016,United States,US,USA,,652308,1840018905
Contagem,Contagem,Minas Gerais,-19.9319,-44.0539,Brazil,BR,BRA,,648766,1076845191
Tiruppūr,Tiruppur,Tamil Nādu,11.1075,77.3398,India,IN,IND,,650000,1356539761
Ch’ŏnan,Ch'onan,Chungnam,36.8064,127.1522,South Korea,KR,KOR,,651661,1410020455
Tripoli,Tripoli,Liban-Nord,34.4333,35.8333,Lebanon,LB,LBN,admin,530000,1422886065
Honchō,Honcho,Chiba,35.6947,139.9825,Japan,JP,JPN,,641499,1392505502
Düsseldorf,Dusseldorf,North Rhine-Westphalia,51.2311,6.7724,Germany,DE,DEU,admin,645923,1276615258
Izhevsk,Izhevsk,Udmurtiya,56.85,53.2167,Russia,RU,RUS,admin,646277,1643983138
Guixi,Guixi,Jiangxi,28.2861,117.2083,China,CN,CHN,minor,647240,1156259342
Sorocaba,Sorocaba,São Paulo,-23.5019,-47.4578,Brazil,BR,BRA,,644919,1076758708
Petaling Jaya,Petaling Jaya,Selangor,3.1073,101.6067,Malaysia,MY,MYS,,638516,1458989343
Tengyue,Tengyue,Yunnan,25.0208,98.4972,China,CN,CHN,minor,644765,1156832866
Wuxue,Wuxue,Hubei,29.8518,115.5539,China,CN,CHN,minor,644247,1156027100
Kikwit,Kikwit,Kwilu,-5.0333,18.8167,Congo (Kinshasa),CD,COD,,637736,1180518247
Colorado Springs,Colorado Springs,Colorado,38.8674,-104.7606,United States,US,USA,,642413,1840018825
Qufu,Qufu,Shandong,35.6,116.9833,China,CN,CHN,,640498,1156490037
Gaobeidian,Gaobeidian,Hebei,39.3257,115.8678,China,CN,CHN,,640280,1156487293
Ruiming,Ruiming,Jiangxi,25.8833,116.0333,China,CN,CHN,,640600,1156104573
Wrocław,Wroclaw,Dolnośląskie,51.11,17.0325,Poland,PL,POL,admin,638586,1616108520
Gold Coast,Gold Coast,Queensland,-28.0167,153.4,Australia,AU,AUS,,638090,1036153217
Xinshi,Xinshi,Hubei,31.0236,113.1079,China,CN,CHN,minor,636776,1156422214
Ta‘izz,Ta`izz,Ta‘izz,13.5789,44.0219,Yemen,YE,YEM,admin,615467,1887324526
Aracaju,Aracaju,Sergipe,-10.9167,-37.05,Brazil,BR,BRA,admin,632744,1076527830
Cochabamba,Cochabamba,Cochabamba,-17.3935,-66.157,Bolivia,BO,BOL,admin,632013,1068793894
Jeonju,Jeonju,Jeonbuk,35.8219,127.1489,South Korea,KR,KOR,admin,631532,1410494847
Jin’e,Jin'e,Sichuan,29.3395,105.2868,China,CN,CHN,minor,633210,1156661253
Barnaul,Barnaul,Altayskiy Kray,53.3567,83.7872,Russia,RU,RUS,admin,633301,1643318931
Makati City,Makati City,Makati,14.55,121.0333,Philippines,PH,PHL,admin,629616,1608725647
Stuttgart,Stuttgart,Baden-Württemberg,48.7761,9.1775,Germany,DE,DEU,admin,630305,1276171358
Rotterdam,Rotterdam,Zuid-Holland,51.9225,4.4792,Netherlands,NL,NLD,minor,631155,1528892850
Changping,Changping,Beijing,40.2248,116.1944,China,CN,CHN,,614821,1156166828
Benghazi,Benghazi,Banghāzī,32.1167,20.0667,Libya,LY,LBY,admin,631555,1434915572
Kryvyi Rih,Kryvyi Rih,Dnipropetrovs’ka Oblast’,47.9086,33.3433,Ukraine,UA,UKR,minor,629695,1804544901
Raurkela,Raurkela,Odisha,22.2492,84.8828,India,IN,IND,,625831,1356096816
Ḩalwān,Halwan,Al Qāhirah,29.8419,31.3342,Egypt,EG,EGY,,619293,1818000039
Charleston,Charleston,South Carolina,32.8153,-79.9628,United States,US,USA,,628377,1840015163
Chimalhuacán,Chimalhuacan,México,19.4167,-98.9,Mexico,MX,MEX,minor,614453,1484504936
Xinxing,Xinxing,Liaoning,39.8734,124.1453,China,CN,CHN,minor,627475,1156258586
Suohe,Suohe,Henan,34.7879,113.392,China,CN,CHN,minor,626700,1156236948
Mangalore,Mangalore,Karnātaka,12.8703,74.8806,India,IN,IND,,623841,1356972351
Zhuangyuan,Zhuangyuan,Shandong,37.3056,120.8275,China,CN,CHN,minor,626683,1156263400
Glasgow,Glasgow,Glasgow City,55.8611,-4.25,United Kingdom,GB,GBR,,626410,1826836462
Namangan,Namangan,Namangan,40.9953,71.6725,Uzbekistan,UZ,UZB,admin,626120,1860894033
Ulyanovsk,Ulyanovsk,Ul’yanovskaya Oblast’,54.3167,48.3667,Russia,RU,RUS,admin,624518,1643668944
Irkutsk,Irkutsk,Irkutskaya Oblast’,52.2833,104.3,Russia,RU,RUS,admin,623736,1643439037
Nānded,Nanded,Mahārāshtra,19.17,77.3,India,IN,IND,,623708,1356722310
Jos,Jos,Plateau,9.9333,8.8833,Nigeria,NG,NGA,admin,622802,1566773679
Pontianak,Pontianak,Kalimantan Barat,-0.0206,109.3414,Indonesia,ID,IDN,admin,618388,1360992394
Villa Nueva,Villa Nueva,Guatemala,14.5314,-90.5964,Guatemala,GT,GTM,minor,618397,1320353009
Bazhou,Bazhou,Hebei,39.1235,116.386,China,CN,CHN,,622975,1156127276
Springfield,Springfield,Massachusetts,42.1155,-72.5395,United States,US,USA,,623401,1840000466
Turpan,Turpan,Xinjiang,42.95,89.1822,China,CN,CHN,minor,622903,1156573684
Las Piñas City,Las Pinas City,Las Piñas,14.45,120.9833,Philippines,PH,PHL,,606293,1608544537
Meihekou,Meihekou,Jilin,42.5279,125.678,China,CN,CHN,minor,618251,1156474288
Jurong,Jurong,Jiangsu,31.9579,119.1595,China,CN,CHN,,617706,1156897463
Feira de Santana,Feira de Santana,Bahia,-12.2669,-38.9669,Brazil,BR,BRA,,617528,1076892244
Khabarovsk,Khabarovsk,Khabarovskiy Kray,48.4833,135.0667,Russia,RU,RUS,admin,616242,1643175363
Xinji,Xinji,Hebei,37.9423,115.2118,China,CN,CHN,,615919,1156456552
Serang,Serang,Banten,-6.12,106.1503,Indonesia,ID,IDN,admin,613356,1360329102
Kandahār,Kandahar,Kandahār,31.6078,65.7053,Afghanistan,AF,AFG,admin,614254,1004003059
Sanya,Sanya,Hainan,18.2536,109.5019,China,CN,CHN,minor,614647,1156373900
San Miguel de Tucumán,San Miguel de Tucuman,Tucumán,-26.8167,-65.2167,Argentina,AR,ARG,admin,605767,1032233996
Yaroslavl,Yaroslavl,Yaroslavskaya Oblast’,57.6167,39.85,Russia,RU,RUS,admin,608079,1643338528
Zhangshu,Zhangshu,Jiangxi,28.0667,115.5375,China,CN,CHN,,610424,1156996913
Bağcılar,Bagcilar,İstanbul,41.0406,28.8261,Turkey,TR,TUR,,556519,1792374908
Grand Rapids,Grand Rapids,Michigan,42.962,-85.6562,United States,US,USA,,609314,1840002928
Vladivostok,Vladivostok,Primorskiy Kray,43.1167,131.9,Russia,RU,RUS,admin,606589,1643832017
Kuantan,Kuantan,Pahang,3.8167,103.3333,Malaysia,MY,MYS,admin,607778,1458763489
Gothenburg,Gothenburg,Västra Götaland,57.6717,11.981,Sweden,SE,SWE,admin,604829,1752059374
